bedrooms,bathroom,surface sft,land surface,price,gross tax,strata fee,build year,type,address,city,district,listing id,url,longitude,latitude
5,2,,-1,"300,000",-1.0,-1.0,-1,House,1545 Rue Alfred-DesRochers,Sainte-Catherine,,25270330,https://www.realtor.ca/real-estate/22657367/1545-rue-alfred-desrochers-sainte-catherine,-73.581044,45.395615
3,2,,-1,"300,000",-1.0,-1.0,-1,House,92 Ch. de Mille-Isles,Mille-Isles,,12958139,https://www.realtor.ca/real-estate/22458666/92-ch-de-mille-isles-mille-isles,-74.114218,45.785623
6,4,,-1,"300,000",-1.0,-1.0,-1,House,3 Rue Henri-Lapierre,Verchères,,14371396,https://www.realtor.ca/real-estate/22501716/3-rue-henri-lapierre-verchères,-73.357562,45.775334
4,2,,-1,"302,900",-1.0,-1.0,-1,House,2335 Rue Lambert-Sarazin,Saint-Hyacinthe,,20338976,https://www.realtor.ca/real-estate/22255712/2335-rue-lambert-sarazin-saint-hyacinthe-la-providence,-72.944572,45.612747
2,2,,-1,"304,000",-1.0,-1.0,-1,House,102 Rue Marie-Renée,Varennes,,24535134,https://www.realtor.ca/real-estate/22607869/102-rue-marie-renée-varennes,-73.41738654,45.6889128
3,2,,-1,"305,000",-1.0,-1.0,-1,House,1545 Rue Brébeuf,Sainte-Catherine,,26697835,https://www.realtor.ca/real-estate/22527384/1545-rue-brébeuf-sainte-catherine,-73.56813142,45.39026782
4,2,1140 sqft,-1,"306,000",-1.0,-1.0,-1,House,17 Rue Lauzon,Salaberry-de-Valleyfield,,26766841,https://www.realtor.ca/real-estate/22604782/17-rue-lauzon-salaberry-de-valleyfield-saint-timothée,-74.030108,45.293528
3,2,,-1,"309,000",-1.0,-1.0,-1,House,2226 Rue Bombardier,Marieville,,20764417,https://www.realtor.ca/real-estate/22662623/2226-rue-bombardier-marieville,-73.15143961,45.4310623
3,2,,-1,"309,000",-1.0,-1.0,-1,House,1154 Rue du Moulin-Payet,Saint-Antoine-sur-Richelieu,,12354197,https://www.realtor.ca/real-estate/22660619/1154-rue-du-moulin-payet-saint-antoine-sur-richelieu,-73.17153392,45.78702791
3,2,1110 sqft,-1,"309,000",-1.0,-1.0,-1,House,503 Rue des Cèdres,Beauharnois,,28368488,https://www.realtor.ca/real-estate/22643415/503-rue-des-cèdres-beauharnois-maple-grove,-73.85861908,45.31628713
4,2,,-1,"309,000",-1.0,-1.0,-1,House,291 28e Avenue,Sainte-Marthe-sur-le-Lac,,24245367,https://www.realtor.ca/real-estate/22456648/291-28e-avenue-sainte-marthe-sur-le-lac-north,-73.943716,45.532607
3,2,,-1,"309,000",-1.0,-1.0,-1,House,102 Route 132,Saint-Stanislas-de-Kostka,,25780113,https://www.realtor.ca/real-estate/22570571/102-route-132-saint-stanislas-de-kostka,-74.130605,45.204757
5,2,,-1,"309,000",-1.0,-1.0,-1,House,97 Rue des Frênes,Sainte-Anne-des-Plaines,,15822893,https://www.realtor.ca/real-estate/22630588/97-rue-des-frênes-sainte-anne-des-plaines,-73.82718864,45.76522913
2,2,,-1,"309,900",-1.0,-1.0,-1,House,1080 Rue de Gibraltar,Laval (Fabreville),,28092781,https://www.realtor.ca/real-estate/22574401/1080-rue-de-gibraltar-laval-fabreville-east,-73.827765,45.58238
5,2,,-1,"309,900",-1.0,-1.0,-1,House,18535 Rue J.-L.-Blanchard,Mirabel,,10865028,https://www.realtor.ca/real-estate/22654651/18535-rue-j-l-blanchard-mirabel-saint-janvier,-73.91473201,45.70129636
4,2,,-1,"309,900",-1.0,-1.0,-1,House,31 Rue des Grives,Blainville,,28599257,https://www.realtor.ca/real-estate/22563976/31-rue-des-grives-blainville-north,-73.89844,45.681248
4,2,,-1,"309,900",-1.0,-1.0,-1,House,781 Rue Normand,Laval (Fabreville),,9678114,https://www.realtor.ca/real-estate/22614498/781-rue-normand-laval-fabreville-east,-73.826743,45.571878
3,2,1550 sqft,-1,"309,900",-1.0,-1.0,-1,House,279 53e Avenue,Pointe-Calumet,,19443950,https://www.realtor.ca/real-estate/22539599/279-53e-avenue-pointe-calumet,-73.97832736,45.49379771
4,2,,-1,"309,900",-1.0,-1.0,-1,House,30 30e Avenue E.,Blainville,,12391485,https://www.realtor.ca/real-estate/22494552/30-30e-avenue-e-blainville-east,-73.85251053,45.65834709
4,2,988 sqft,-1,"310,000",-1.0,-1.0,-1,House,4 Rue Adam,Vaudreuil-Dorion,,28605541,https://www.realtor.ca/real-estate/22646087/4-rue-adam-vaudreuil-dorion-vaudreuil-east,-74.05003937,45.41701699
4,2,,-1,"314,900",-1.0,-1.0,-1,House,1084 Rue de Charlesbourg,Mascouche,,24173303,https://www.realtor.ca/real-estate/22558493/1084-rue-de-charlesbourg-mascouche-albi,-73.59010793,45.74675825
4,2,,-1,"314,900",-1.0,-1.0,-1,House,133 38e Avenue,Sainte-Marthe-sur-le-Lac,,19691703,https://www.realtor.ca/real-estate/22637881/133-38e-avenue-sainte-marthe-sur-le-lac-south,-73.9536051,45.5263447
3,2,,-1,"315,000",-1.0,-1.0,-1,House,7567 Rue François-Chartrand,Laval (Duvernay),,22585429,https://www.realtor.ca/real-estate/22483889/7567-rue-françois-chartrand-laval-duvernay-east,-73.60052181,45.653939
3,2,,-1,"315,000",-1.0,-1.0,-1,House,405 4e Avenue,Deux-Montagnes,,25263629,https://www.realtor.ca/real-estate/22608165/405-4e-avenue-deux-montagnes-north,-73.89930374,45.55101103
4,2,,-1,"315,000",-1.0,-1.0,-1,House,847 Rue des Roses,Mascouche,,22726862,https://www.realtor.ca/real-estate/22654485/847-rue-des-roses-mascouche-mascouche-heights,-73.657207,45.749986
3,2,,-1,"315,000",-1.0,-1.0,-1,House,1735 Rue Pine,Longueuil (Saint-Hubert),,16698920,https://www.realtor.ca/real-estate/22642322/1735-rue-pine-longueuil-saint-hubert-laflèche,-73.464611,45.492763
5,2,,-1,"315,000",-1.0,-1.0,-1,House,696 Rue Léonard,Saint-Eustache,,9982893,https://www.realtor.ca/real-estate/22659694/696-rue-léonard-saint-eustache-north-west,-73.92922819,45.57661072
3,2,997.74 sqft,-1,"315,000",-1.0,-1.0,-1,House,67 Rue Martel,Châteauguay,,9598987,https://www.realtor.ca/real-estate/22624668/67-rue-martel-châteauguay,-73.761547,45.363826
3,2,,-1,"315,000",-1.0,-1.0,-1,House,508 Rue Bouchard,Saint-Jean-sur-Richelieu,,18427026,https://www.realtor.ca/real-estate/22657075/508-rue-bouchard-saint-jean-sur-richelieu-saint-jean-sur-richelieu,-73.27289634,45.2730398
3,2,,-1,"315,000",-1.0,-1.0,-1,House,1145 Boul. St-Antoine,Saint-Jérôme,,10417313,https://www.realtor.ca/real-estate/22266505/1145-boul-st-antoine-saint-jérôme-saint-antoine,-73.97802678,45.7671173
10,2,,-1,"315,000",-1.0,-1.0,-1,House,511 Rue Marie-Derome,Saint-Jean-sur-Richelieu,,16801876,https://www.realtor.ca/real-estate/22605787/511-rue-marie-derome-saint-jean-sur-richelieu-saint-jean-sur-richelieu,-73.278616,45.336386
4,2,,-1,"315,900",-1.0,-1.0,-1,House,6351 37e Avenue,Laval (Laval-Ouest),,16525145,https://www.realtor.ca/real-estate/22623901/6351-37e-avenue-laval-laval-ouest,-73.867352,45.546525
2,2,,-1,"319,000",-1.0,-1.0,-1,House,280 Rue Chevrier,Repentigny (Repentigny),,11662142,https://www.realtor.ca/real-estate/22497989/280-rue-chevrier-repentigny-repentigny,-73.42507,45.781641
5,2,,-1,"319,000",-1.0,-1.0,-1,House,945 Rue Vimont,Laval (Saint-François),,28395676,https://www.realtor.ca/real-estate/22528012/945-rue-vimont-laval-saint-françois,-73.578708,45.671832
3,2,,-1,"319,000",-1.0,-1.0,-1,House,837 Rue du Domaine,Saint-Jean-sur-Richelieu,,22091409,https://www.realtor.ca/real-estate/22661492/837-rue-du-domaine-saint-jean-sur-richelieu-saint-jean-sur-richelieu,-73.296181,45.310177
4,2,,-1,"319,000",-1.0,-1.0,-1,House,72 Rue Martin,Saint-Pie,,24540953,https://www.realtor.ca/real-estate/22646995/72-rue-martin-saint-pie,-72.91072391,45.50640021
4,2,,-1,"319,000",-1.0,-1.0,-1,House,21 27e Avenue O.,Blainville,,21479270,https://www.realtor.ca/real-estate/22587347/21-27e-avenue-o-blainville-south,-73.854764,45.655445
5,2,1232 sqft,-1,"319,000",-1.0,-1.0,-1,House,211 Ch. St-Louis,Saint-Étienne-de-Beauharnois,,19469595,https://www.realtor.ca/real-estate/22072076/211-ch-st-louis-saint-étienne-de-beauharnois,-73.89480088,45.25971711
6,2,,-1,"319,000",-1.0,-1.0,-1,House,2975 Rue Sicotte,Saint-Hyacinthe,,10955864,https://www.realtor.ca/real-estate/22624252/2975-rue-sicotte-saint-hyacinthe-douville,-72.96124717,45.62068473
4,2,122.49 m2,-1,"319,000",-1.0,-1.0,-1,House,880 Rue des Seigneurs E.,Saint-Hyacinthe,,15577672,https://www.realtor.ca/real-estate/22645498/880-rue-des-seigneurs-e-saint-hyacinthe-saint-joseph,-72.92134747,45.61952026
3,2,,-1,"319,000",-1.0,-1.0,-1,House,12499 Rue René-Lévesque,Montréal (Rivière-des-Prairies/Pointe-aux-Trembles),,10925875,https://www.realtor.ca/real-estate/22345645/12499-rue-rené-lévesque-montréal-rivière-des-prairiespointe-aux-trembles-pointe-aux-trembles,-73.498716,45.647083
3,2,,-1,"319,000",-1.0,-1.0,-1,House,12 Rue Faust,Châteauguay,,26342222,https://www.realtor.ca/real-estate/22605863/12-rue-faust-châteauguay,-73.747738,45.364978
3,2,1017 sqft,-1,"319,500",-1.0,-1.0,-1,House,3332 Rue Alexandra,Longueuil (Saint-Hubert),,14289794,https://www.realtor.ca/real-estate/22448041/3332-rue-alexandra-longueuil-saint-hubert-laflèche,-73.463977,45.503309
6,2,,-1,"319,900",-1.0,-1.0,-1,House,615 3e Avenue,Deux-Montagnes,,20150582,https://www.realtor.ca/real-estate/22648845/615-3e-avenue-deux-montagnes-north,-73.903361,45.554931
2,2,,-1,"319,900",-1.0,-1.0,-1,House,1261 40e Avenue,Laval (Fabreville),,19316692,https://www.realtor.ca/real-estate/22506560/1261-40e-avenue-laval-fabreville-west,-73.843569,45.575824
4,2,,-1,"319,900",-1.0,-1.0,-1,House,1440 Rue Beauchamp,Mascouche,,20169212,https://www.realtor.ca/real-estate/22530937/1440-rue-beauchamp-mascouche-mascouche-heights,-73.65568,45.739728
4,2,,-1,"319,900",-1.0,-1.0,-1,House,326 Rue Rémi,#4,,9271320,https://www.realtor.ca/real-estate/22613069/326-rue-rémi-4-saint-amable,-73.3144178,45.63962395
4,2,,-1,"319,900",-1.0,-1.0,-1,House,330 Rue Rémi,#3,,19280689,https://www.realtor.ca/real-estate/22655056/330-rue-rémi-3-saint-amable,-73.31449546,45.6395669
2,2,,-1,"319,900",-1.0,-1.0,-1,House,860 Rue Senneville,Repentigny (Repentigny),,15605711,https://www.realtor.ca/real-estate/22655603/860-rue-senneville-repentigny-repentigny,-73.43371439,45.77142964
4,2,,-1,"319,900",-1.0,-1.0,-1,House,73 Rue Mireault,Repentigny (Repentigny),,13961387,https://www.realtor.ca/real-estate/22632906/73-rue-mireault-repentigny-repentigny,-73.478707,45.72107
3,2,,-1,"319,900",-1.0,-1.0,-1,House,141 56e Avenue,Saint-Eustache,,25437447,https://www.realtor.ca/real-estate/22634946/141-56e-avenue-saint-eustache-east,-73.856435,45.585565
4,2,,-1,"319,900",-1.0,-1.0,-1,House,1620 Rue Lécuyer,Saint-Michel,,11524554,https://www.realtor.ca/real-estate/22639455/1620-rue-lécuyer-saint-michel,-73.57693622,45.24356696
3,2,,-1,"319,900",-1.0,-1.0,-1,House,80 Rue Joseph-Vandal,Saint-Jean-sur-Richelieu,,11233329,https://www.realtor.ca/real-estate/22664318/80-rue-joseph-vandal-saint-jean-sur-richelieu-saint-luc,-73.29584568,45.33849897
4,2,,-1,"320,000",-1.0,-1.0,-1,House,5179 Tsse Jasmin,Longueuil (Saint-Hubert),,19920185,https://www.realtor.ca/real-estate/22648760/5179-tsse-jasmin-longueuil-saint-hubert-orchard,-73.43693522,45.48867474
4,2,1798 sqft,-1,"320,000",-1.0,-1.0,-1,House,305 Ch. St-Louis,Beauharnois,,15944273,https://www.realtor.ca/real-estate/22431187/305-ch-st-louis-beauharnois-beauharnois,-73.87968617,45.30732186
3,2,,-1,"324,000",-1.0,-1.0,-1,House,819 41e Avenue,Saint-Jérôme,,28379600,https://www.realtor.ca/real-estate/22657267/819-41e-avenue-saint-jérôme-saint-antoine,-73.970631,45.776301
4,2,,-1,"324,000",-1.0,-1.0,-1,House,370 Rue Brodeur,Longueuil (Le Vieux-Longueuil),,10456084,https://www.realtor.ca/real-estate/22601815/370-rue-brodeur-longueuil-le-vieux-longueuil-east,-73.473254,45.532097
4,2,,-1,"324,000",-1.0,-1.0,-1,House,62 Rue Lakeview,Deux-Montagnes,,26476154,https://www.realtor.ca/real-estate/22566089/62-rue-lakeview-deux-montagnes-south,-73.89597738,45.53263542
3,2,,-1,"324,900",-1.0,-1.0,-1,House,1006 Av. Jean-Charles,Laval (Sainte-Rose),,25157465,https://www.realtor.ca/real-estate/22392270/1006-av-jean-charles-laval-sainte-rose-valjardins-ste-rose,-73.770897,45.624076
3,2,,-1,"324,900",-1.0,-1.0,-1,House,1033 11e Avenue,Laval (Fabreville),,27348042,https://www.realtor.ca/real-estate/22619700/1033-11e-avenue-laval-fabreville-west,-73.861284,45.561467
4,2,,-1,"324,900",-1.0,-1.0,-1,House,1371 Rue Maurice-Cullen,Blainville,,17364337,https://www.realtor.ca/real-estate/22637292/1371-rue-maurice-cullen-blainville-north,-73.89847,45.693483
4,2,,-1,"324,900",-1.0,-1.0,-1,House,39 Rue Lebeau,Sainte-Thérèse,,18491890,https://www.realtor.ca/real-estate/22622541/39-rue-lebeau-sainte-thérèse-central-old,-73.82083798,45.63989671
4,2,1120 sqft,-1,"324,900",-1.0,-1.0,-1,House,1046 44e Avenue,Laval (Fabreville),,9930554,https://www.realtor.ca/real-estate/22467087/1046-44e-avenue-laval-fabreville-west,-73.83710129,45.57260026
2,2,898 sqft,-1,"325,000",-1.0,-1.0,-1,House,562 Rue St-André,Laval (Pont-Viau),,16539242,https://www.realtor.ca/real-estate/22545252/562-rue-st-andré-laval-pont-viau,-73.691768,45.572329
4,2,,-1,"325,000",-1.0,-1.0,-1,House,214 Rue Orléans,Saint-Eustache,,20282443,https://www.realtor.ca/real-estate/22615865/214-rue-orléans-saint-eustache-central-east,-73.88600654,45.57460662
8,2,,-1,"325,000",-1.0,-1.0,-1,House,81 Rue St-Laurent,Salaberry-de-Valleyfield,,13917774,https://www.realtor.ca/real-estate/21589827/81-rue-st-laurent-salaberry-de-valleyfield-saint-timothée,-74.03564868,45.29360258
4,2,,-1,"325,000",-1.0,-1.0,-1,House,270 Boul. Iberville,Repentigny (Repentigny),,22521753,https://www.realtor.ca/real-estate/22663159/270-boul-iberville-repentigny-repentigny,-73.46163447,45.72846967
5,2,,-1,"325,000",-1.0,-1.0,-1,House,525 Rue Favre,La Prairie,,19738672,https://www.realtor.ca/real-estate/22641552/525-rue-favre-la-prairie-le-fort-neuf,-73.4927782,45.41154175
4,2,,-1,"325,000",-1.0,-1.0,-1,House,1269 Rue Churchill,Repentigny (Repentigny),,14594490,https://www.realtor.ca/real-estate/22642310/1269-rue-churchill-repentigny-repentigny,-73.41686208,45.78345225
3,2,,-1,"325,000",-1.0,-1.0,-1,House,8170 Rue Rodrigue,Laval (Saint-François),,13237576,https://www.realtor.ca/real-estate/22624269/8170-rue-rodrigue-laval-saint-françois,-73.587658,45.669738
4,2,,-1,"325,000",-1.0,-1.0,-1,House,1077 Rue de Neuville,Repentigny (Repentigny),,16265560,https://www.realtor.ca/real-estate/22319467/1077-rue-de-neuville-repentigny-repentigny,-73.42781217,45.78006625
2,2,887 sqft,-1,"325,000",-1.0,-1.0,-1,House,2117Z Rue Préfontaine,Longueuil (Le Vieux-Longueuil),,17935695,https://www.realtor.ca/real-estate/22323598/2117z-rue-préfontaine-longueuil-le-vieux-longueuil-central,-73.48546,45.514436
3,2,,-1,"325,000",-1.0,-1.0,-1,House,600 Rue de Champigny,Terrebonne (Terrebonne),,19883721,https://www.realtor.ca/real-estate/22619852/600-rue-de-champigny-terrebonne-terrebonne-saint-louishauteville,-73.66572615,45.70060915
3,2,,-1,"325,000",-1.0,-1.0,-1,House,1230 Rue Jacques-Desrosiers,Blainville,,21080876,https://www.realtor.ca/real-estate/22601276/1230-rue-jacques-desrosiers-blainville-north,-73.89924935,45.68446579
2,2,,-1,"325,000",-1.0,-1.0,-1,House,55 Rue Veilleux,Saint-Constant,,23057408,https://www.realtor.ca/real-estate/22656827/55-rue-veilleux-saint-constant,-73.595444,45.381892
4,2,180.1 m2,-1,"325,000",-1.0,-1.0,-1,House,37 Ch. de la Beauce,Beauharnois,,19687503,https://www.realtor.ca/real-estate/22409303/37-ch-de-la-beauce-beauharnois-beauharnois,-73.86929654,45.31408614
4,2,,-1,"326,905",-1.0,-1.0,-1,House,151A Rue du Carignan,Saint-Jean-sur-Richelieu,,17534825,https://www.realtor.ca/real-estate/22553021/151a-rue-du-carignan-saint-jean-sur-richelieu-saint-jean-sur-richelieu,-73.25692664,45.29058895
4,2,,-1,"326,905",-1.0,-1.0,-1,House,151 Rue du Carignan,Saint-Jean-sur-Richelieu,,21724366,https://www.realtor.ca/real-estate/22553060/151-rue-du-carignan-saint-jean-sur-richelieu-saint-jean-sur-richelieu,-73.256586,45.290538
4,2,,-1,"328,900",-1.0,-1.0,-1,House,146 Crois. Gaudet,Repentigny (Le Gardeur),,26701601,https://www.realtor.ca/real-estate/22595179/146-crois-gaudet-repentigny-le-gardeur,-73.458664,45.772939
3,2,,-1,"329,000",-1.0,-1.0,-1,House,3210 Rue de Panama,Longueuil (Saint-Hubert),,15605595,https://www.realtor.ca/real-estate/22640325/3210-rue-de-panama-longueuil-saint-hubert-street-names-l-p,-73.43064,45.500338
3,2,99 m2,-1,"329,000",-1.0,-1.0,-1,House,956 Rue Vinet,Beloeil,,17715593,https://www.realtor.ca/real-estate/22627174/956-rue-vinet-beloeil,-73.206075,45.575701
5,2,,-1,"329,000",-1.0,-1.0,-1,House,1139 Rue Gagnier,Deux-Montagnes,,12824702,https://www.realtor.ca/real-estate/22555737/1139-rue-gagnier-deux-montagnes-north,-73.9128982,45.55160472
4,2,1768 sqft,-1,"329,000",-1.0,-1.0,-1,House,666 Rue Bellevue,Deux-Montagnes,,12200029,https://www.realtor.ca/real-estate/22449531/666-rue-bellevue-deux-montagnes-north,-73.91293533,45.55213389
3,2,,-1,"329,000",-1.0,-1.0,-1,House,479 Boul. de L'Assomption,Repentigny (Repentigny),,9973349,https://www.realtor.ca/real-estate/22482093/479-boul-de-lassomption-repentigny-repentigny,-73.47011793,45.74724035
4,2,,-1,"329,000",-1.0,-1.0,-1,House,15A 39e Avenue,Bois-des-Filion,,26831949,https://www.realtor.ca/real-estate/22660584/15a-39e-avenue-bois-des-filion,-73.755927,45.663852
4,2,,-1,"329,000",-1.0,-1.0,-1,House,94 Carré St-Patrick,Châteauguay,,25531370,https://www.realtor.ca/real-estate/22664360/94-carré-st-patrick-châteauguay,-73.726584,45.352823
3,2,,-1,"329,000",-1.0,-1.0,-1,House,4050 Rue Benoit,Laval (Chomedey),,19498294,https://www.realtor.ca/real-estate/22384253/4050-rue-benoit-laval-chomedey-carrefour-saint-martin,-73.77298666,45.55993117
3,2,,-1,"329,000",-1.0,-1.0,-1,House,540 Av. Georges-Rainville,Saint-Jean-sur-Richelieu,,22207236,https://www.realtor.ca/real-estate/22662203/540-av-georges-rainville-saint-jean-sur-richelieu-iberville,-73.22628641,45.31145849
4,2,,-1,"329,000",-1.0,-1.0,-1,House,6160 Rue Dagenais,Montréal (Montréal-Nord),,15464068,https://www.realtor.ca/real-estate/21945252/6160-rue-dagenais-montréal-montréal-nord,-73.624738,45.6189
3,2,,-1,"329,000",-1.0,-1.0,-1,House,815 Rue des Bouleaux,Saint-Eustache,,26056077,https://www.realtor.ca/real-estate/22604779/815-rue-des-bouleaux-saint-eustache-north-west,-73.929306,45.581426
4,2,,-1,"329,000",-1.0,-1.0,-1,House,441 Rue Populaire,Terrebonne (Lachenaie),,23912212,https://www.realtor.ca/real-estate/22604856/441-rue-populaire-terrebonne-lachenaie-odiana,-73.656061,45.720567
3,2,,-1,"329,000",-1.0,-1.0,-1,House,1780 Rue Godard,Terrebonne (Terrebonne),,16549226,https://www.realtor.ca/real-estate/22426387/1780-rue-godard-terrebonne-terrebonne-saint-louishauteville,-73.65963,45.719172
4,2,,-1,"329,000",-1.0,-1.0,-1,House,11 Rue des Pins,Sainte-Anne-des-Plaines,,22463658,https://www.realtor.ca/real-estate/22635835/11-rue-des-pins-sainte-anne-des-plaines,-73.76975782,45.76245678
3,2,77.8 m2,-1,"329,000",-1.0,-1.0,-1,House,12795 Av. Paul-Dufault,Montréal (Rivière-des-Prairies/Pointe-aux-Trembles),,17021576,https://www.realtor.ca/real-estate/22238699/12795-av-paul-dufault-montréal-rivière-des-prairiespointe-aux-trembles-rivière-des-prairies,-73.593896,45.645818
4,2,,-1,"329,000",-1.0,-1.0,-1,House,837 Rue Robert,Saint-Jérôme,,24543144,https://www.realtor.ca/real-estate/22413262/837-rue-robert-saint-jérôme-bellefeuille,-74.04837258,45.77060501
3,2,942.5 sqft,-1,"329,000",-1.0,-1.0,-1,House,902 Rue Sarrazin,Repentigny (Repentigny),,24710623,https://www.realtor.ca/real-estate/22496111/902-rue-sarrazin-repentigny-repentigny,-73.425997,45.769858
4,2,,-1,"329,000",-1.0,-1.0,-1,House,1285 Av. des Érables,Saint-Jérôme,,21113672,https://www.realtor.ca/real-estate/22651524/1285-av-des-érables-saint-jérôme-saint-antoine,-73.97550818,45.75543994
4,2,,-1,"329,000",-1.0,-1.0,-1,House,2625 Boul. Hébert,Salaberry-de-Valleyfield,,26677057,https://www.realtor.ca/real-estate/22656852/2625-boul-hébert-salaberry-de-valleyfield-saint-timothée,-74.08938915,45.27452225
3,2,,-1,"329,900",-1.0,-1.0,-1,House,6152 Rue Guérin,Terrebonne (La Plaine),,14452816,https://www.realtor.ca/real-estate/22654269/6152-rue-guérin-terrebonne-la-plaine-laurierchartrand,-73.71255339,45.76392807
4,2,,-1,"329,900",-1.0,-1.0,-1,House,580 Rue Beauchamp,Repentigny (Le Gardeur),,25870571,https://www.realtor.ca/real-estate/22525971/580-rue-beauchamp-repentigny-le-gardeur,-73.46638986,45.7664615
4,2,,-1,"329,900",-1.0,-1.0,-1,House,1171 Rue Gadbois,Longueuil (Saint-Hubert),,15994305,https://www.realtor.ca/real-estate/22643775/1171-rue-gadbois-longueuil-saint-hubert-laflèche,-73.452158,45.497995
3,2,,-1,"329,900",-1.0,-1.0,-1,House,410 Boul. Jacques-Cartier E.,Longueuil (Le Vieux-Longueuil),,10080891,https://www.realtor.ca/real-estate/22451808/410-boul-jacques-cartier-e-longueuil-le-vieux-longueuil-pierre-boucher,-73.462667,45.529827
3,2,,-1,"329,900",-1.0,-1.0,-1,House,317 Rue de Louvain,Saint-Eustache,,21119223,https://www.realtor.ca/real-estate/22657356/317-rue-de-louvain-saint-eustache-east,-73.87292488,45.58028487
3,2,,-1,"329,900",-1.0,-1.0,-1,House,1208 Rue Auvergne,Mascouche,,12178469,https://www.realtor.ca/real-estate/22593928/1208-rue-auvergne-mascouche-mascouche-heights,-73.666164,45.742275
3,2,,-1,"329,900",-1.0,-1.0,-1,House,111 Rue Aurèle-Benoît,Saint-Jean-sur-Richelieu,,27773664,https://www.realtor.ca/real-estate/22634483/111-rue-aurèle-benoît-saint-jean-sur-richelieu-saint-luc,-73.254872,45.369349
3,2,,-1,"329,900",-1.0,-1.0,-1,House,1099 Boul. de La Salette,Saint-Jérôme,,16350620,https://www.realtor.ca/real-estate/22666521/1099-boul-de-la-salette-saint-jérôme-bellefeuille,-74.09915987,45.78305872
3,2,85.77 m2,-1,"330,000",-1.0,-1.0,-1,House,80 84e Avenue O.,Blainville,,13356790,https://www.realtor.ca/real-estate/22638189/80-84e-avenue-o-blainville-north,-73.894993,45.672723
3,3,,-1,"330,000",-1.0,-1.0,-1,House,258 8e Avenue,L'Île-Perrot,,11421183,https://www.realtor.ca/real-estate/22593997/258-8e-avenue-lîle-perrot,-73.957484,45.392324
5,2,92.33 m2,-1,"330,000",-1.0,-1.0,-1,House,519 Rue Joseph-Bonnet,Saint-Eustache,,17525820,https://www.realtor.ca/real-estate/22628989/519-rue-joseph-bonnet-saint-eustache-north-west,-73.92656038,45.5683753
4,2,,-1,"334,000",-1.0,-1.0,-1,House,203 Rue Antonio,Sainte-Anne-des-Plaines,,22121118,https://www.realtor.ca/real-estate/22562696/203-rue-antonio-sainte-anne-des-plaines,-73.80749635,45.76388295
4,2,97.9 m2,-1,"334,000",-1.0,-1.0,-1,House,21A Rue de Neptune,Marieville,,18420810,https://www.realtor.ca/real-estate/22648289/21a-rue-de-neptune-marieville,-73.1957847,45.43645211
3,2,,-1,"334,900",-1.0,-1.0,-1,House,95 Rue de l'Église,McMasterville,,13252580,https://www.realtor.ca/real-estate/22666508/95-rue-de-léglise-mcmasterville,-73.21995131,45.54668651
5,2,,-1,"334,900",-1.0,-1.0,-1,House,501-503 Ch. Pincourt,Mascouche,,14519436,https://www.realtor.ca/real-estate/22399061/501-503-ch-pincourt-mascouche-mascouche-heights,-73.669355,45.746258
3,2,,-1,"334,900",-1.0,-1.0,-1,House,611 Rue Léonard,Saint-Eustache,,19222682,https://www.realtor.ca/real-estate/22539598/611-rue-léonard-saint-eustache-north-west,-73.928634,45.575446
3,2,893 sqft,-1,"335,000",-1.0,-1.0,-1,House,87 Boul. Laurentien,Repentigny (Repentigny),,27374242,https://www.realtor.ca/real-estate/22654587/87-boul-laurentien-repentigny-repentigny,-73.41608,45.775421
3,2,,-1,"335,400",-1.0,-1.0,-1,House,8617 10e Avenue,Montréal (Villeray/Saint-Michel/Parc-Extension),,11391990,https://www.realtor.ca/real-estate/22578739/8617-10e-avenue-montréal-villeraysaint-michelparc-extension-saint-michel,-73.619324,45.567416
3,2,,-1,"336,000",-1.0,-1.0,-1,House,Rue des Cygnes,Saint-Stanislas-de-Kostka,,21974790,https://www.realtor.ca/real-estate/21600722/rue-des-cygnes-saint-stanislas-de-kostka,-74.155058,45.206917
3,2,,-1,"337,000",-1.0,-1.0,-1,House,12 Rue Lalonde,Mercier,,25439902,https://www.realtor.ca/real-estate/22630402/12-rue-lalonde-mercier,-73.74871442,45.30172542
3,2,,-1,"337,900",-1.0,-1.0,-1,House,17 8e Avenue,Sainte-Marthe-sur-le-Lac,,14513194,https://www.realtor.ca/real-estate/22423133/17-8e-avenue-sainte-marthe-sur-le-lac-south,-73.91900035,45.52997654
3,2,,-1,"337,900",-1.0,-1.0,-1,House,19 8e Avenue,Sainte-Marthe-sur-le-Lac,,24083324,https://www.realtor.ca/real-estate/22415465/19-8e-avenue-sainte-marthe-sur-le-lac-south,-73.91893598,45.52987132
3,2,102.1 m2,-1,"339,000",-1.0,-1.0,-1,House,242 Rue Léon-Bloy O.,La Prairie,,17006200,https://www.realtor.ca/real-estate/22036811/242-rue-léon-bloy-o-la-prairie-le-christ-roi,-73.5095,45.404041
3,2,,-1,"339,000",-1.0,-1.0,-1,House,5755 Rue Bachand,Longueuil (Saint-Hubert),,18004823,https://www.realtor.ca/real-estate/22487525/5755-rue-bachand-longueuil-saint-hubert-sir-wilfrid-laurier,-73.422721,45.531264
3,2,,-1,"339,000",-1.0,-1.0,-1,House,1097 Av. de Normandie,Mascouche,,18071597,https://www.realtor.ca/real-estate/22590618/1097-av-de-normandie-mascouche-mascouche-heights,-73.668663,45.744997
4,3,,-1,"339,000",-1.0,-1.0,-1,House,881 9e Avenue,Laval (Fabreville),,14805625,https://www.realtor.ca/real-estate/22624281/881-9e-avenue-laval-fabreville-west,-73.85956,45.557911
4,2,,-1,"339,000",-1.0,-1.0,-1,House,2503 Rue Dollard,Longueuil (Le Vieux-Longueuil),,28028390,https://www.realtor.ca/real-estate/22658615/2503-rue-dollard-longueuil-le-vieux-longueuil-central,-73.475835,45.514362
3,2,,-1,"339,000",-1.0,-1.0,-1,House,2311 Rue du Carat,Terrebonne (La Plaine),,16775210,https://www.realtor.ca/real-estate/22569916/2311-rue-du-carat-terrebonne-la-plaine-laurierchartrand,-73.71111203,45.76277138
4,2,47.01 m2,-1,"339,000",-1.0,-1.0,-1,House,87Z Rue Barnett,Dollard-Des Ormeaux,,27749663,https://www.realtor.ca/real-estate/22626865/87z-rue-barnett-dollard-des-ormeaux-central,-73.837091,45.478748
3,2,,-1,"339,000",-1.0,-1.0,-1,House,137 Rue Lemieux,Saint-Rémi,,23790068,https://www.realtor.ca/real-estate/22646059/137-rue-lemieux-saint-rémi,-73.623475,45.262416
4,2,,-1,"339,900",-1.0,-1.0,-1,House,1191 Rue des Pélicans,Saint-Jérôme,,26771909,https://www.realtor.ca/real-estate/22642791/1191-rue-des-pélicans-saint-jérôme-saint-antoine,-73.978319,45.768805
3,2,,-1,"339,900",-1.0,-1.0,-1,House,276 Rue Chevrier,Repentigny (Repentigny),,17005791,https://www.realtor.ca/real-estate/22597643/276-rue-chevrier-repentigny-repentigny,-73.424927,45.78156
5,2,,-1,"339,900",-1.0,-1.0,-1,House,130 Rue Viau,Saint-Eustache,,20279045,https://www.realtor.ca/real-estate/22254703/130-rue-viau-saint-eustache-central-west,-73.90213514,45.57059914
4,2,1223 sqft,-1,"339,900",-1.0,-1.0,-1,House,700 Rue La Bruyère,Laval (Auteuil),,27105126,https://www.realtor.ca/real-estate/22502063/700-rue-la-bruyère-laval-auteuil-others,-73.75380803,45.6573607
3,4,,-1,"339,900",-1.0,-1.0,-1,House,350 Boul. Lacombe,Repentigny (Le Gardeur),,10432681,https://www.realtor.ca/real-estate/21808493/350-boul-lacombe-repentigny-le-gardeur,-73.473114,45.750979
3,2,,-1,"339,900",-1.0,-1.0,-1,House,257 Rue Albert,Châteauguay,,18618222,https://www.realtor.ca/real-estate/22456406/257-rue-albert-châteauguay,-73.73836895,45.34908157
3,2,1465 sqft,-1,"340,000",-1.0,-1.0,-1,House,Rue de Liège,Saint-Colomban,,23325989,https://www.realtor.ca/real-estate/21424207/rue-de-liège-saint-colomban,-74.06687727,45.756254
5,2,,-1,"342,000",-1.0,-1.0,-1,House,138 Rue Principale,Saint-Basile-le-Grand,,12415226,https://www.realtor.ca/real-estate/22488746/138-rue-principale-saint-basile-le-grand-village,-73.28355686,45.52925396
4,2,102.1 m2,-1,"343,800",-1.0,-1.0,-1,House,295 Rue Léon-Bloy O.,La Prairie,,25540759,https://www.realtor.ca/real-estate/22659771/295-rue-léon-bloy-o-la-prairie-le-christ-roi,-73.50845413,45.4037811
5,2,,-1,"344,000",-1.0,-1.0,-1,House,70 Rue Champagne,Saint-Basile-le-Grand,,24637404,https://www.realtor.ca/real-estate/22645547/70-rue-champagne-saint-basile-le-grand-montagne,-73.29129269,45.53046797
3,2,,-1,"344,900",-1.0,-1.0,-1,House,135 Boul. Primeau,Châteauguay,,24037144,https://www.realtor.ca/real-estate/22664252/135-boul-primeau-châteauguay,-73.75048823,45.35295624
4,2,,-1,"345,000",-1.0,-1.0,-1,House,220 Rue des Hêtres,Laval (Duvernay),,11351763,https://www.realtor.ca/real-estate/22613036/220-rue-des-hêtres-laval-duvernay-east,-73.603614,45.651495
4,2,,-1,"345,000",-1.0,-1.0,-1,House,132 38e Avenue,Sainte-Marthe-sur-le-Lac,,25964088,https://www.realtor.ca/real-estate/22640358/132-38e-avenue-sainte-marthe-sur-le-lac-south,-73.9533853,45.52577115
6,2,,-1,"345,000",-1.0,-1.0,-1,House,14070 Rue des Saules,Mirabel,,23875555,https://www.realtor.ca/real-estate/22654764/14070-rue-des-saules-mirabel-saint-augustin,-74.00164483,45.6289077
4,2,,-1,"345,000",-1.0,-1.0,-1,House,14020 Av. des Érables-Argentés,Saint-Hyacinthe,,23351853,https://www.realtor.ca/real-estate/22565534/14020-av-des-érables-argentés-saint-hyacinthe-sainte-rosalie,-72.893709,45.648751
4,3,,-1,"345,000",-1.0,-1.0,-1,House,245 Rue Riendeau,Saint-Jean-sur-Richelieu,,19803805,https://www.realtor.ca/real-estate/22532001/245-rue-riendeau-saint-jean-sur-richelieu-iberville,-73.239888,45.315966
3,2,,-1,"345,000",-1.0,-1.0,-1,House,349 Rue Jeannette,Laval (Fabreville),,17444825,https://www.realtor.ca/real-estate/22566905/349-rue-jeannette-laval-fabreville-east,-73.810747,45.564572
4,2,,-1,"348,000",-1.0,-1.0,-1,House,2833 Ch. d'Oka,Sainte-Marthe-sur-le-Lac,,10487126,https://www.realtor.ca/real-estate/22660275/2833-ch-doka-sainte-marthe-sur-le-lac-north,-73.91426572,45.53259786
3,2,90.03 m2,-1,"348,900",-1.0,-1.0,-1,House,1740 Rue Godard,Terrebonne (Terrebonne),,22764211,https://www.realtor.ca/real-estate/22642339/1740-rue-godard-terrebonne-terrebonne-saint-louishauteville,-73.65996104,45.71828286
4,2,,-1,"349,000",-1.0,-1.0,-1,House,4043 Rue de La Martinière,Terrebonne (Terrebonne),,26780137,https://www.realtor.ca/real-estate/22610336/4043-rue-de-la-martinière-terrebonne-terrebonne-saint-louishauteville,-73.6689737,45.71628531
3,2,,-1,"349,000",-1.0,-1.0,-1,House,1785 Rue Léo-Delorme,Terrebonne (Lachenaie),,13709572,https://www.realtor.ca/real-estate/22478441/1785-rue-léo-delorme-terrebonne-lachenaie-city,-73.610707,45.705465
3,2,,-1,"349,000",-1.0,-1.0,-1,House,32 Rue Gervais,Saint-Isidore,,14687828,https://www.realtor.ca/real-estate/22614111/32-rue-gervais-saint-isidore,-73.680435,45.310626
5,2,,-1,"349,000",-1.0,-1.0,-1,House,13695 Rue de Troyes,Mirabel,,20774252,https://www.realtor.ca/real-estate/22640611/13695-rue-de-troyes-mirabel-saint-janvier,-73.915604,45.702511
4,2,,-1,"349,000",-1.0,-1.0,-1,House,16 101e Avenue E.,Blainville,,9242192,https://www.realtor.ca/real-estate/22584069/16-101e-avenue-e-blainville-north,-73.89631099,45.687686
6,2,,-1,"349,000",-1.0,-1.0,-1,House,3790 Rue Télesphore,Terrebonne (Terrebonne),,14336236,https://www.realtor.ca/real-estate/22506731/3790-rue-télesphore-terrebonne-terrebonne-west,-73.80504435,45.70196321
4,2,,-1,"349,000",-1.0,-1.0,-1,House,226 Ch. du Bas-de-Ste-Thérèse,Blainville,,22475691,https://www.realtor.ca/real-estate/22654753/226-ch-du-bas-de-ste-thérèse-blainville-east,-73.810671,45.647146
4,2,,-1,"349,000",-1.0,-1.0,-1,House,507 Rue Perron,Saint-Jean-sur-Richelieu,,11247059,https://www.realtor.ca/real-estate/22641135/507-rue-perron-saint-jean-sur-richelieu-saint-jean-sur-richelieu,-73.267942,45.273175
3,2,7 sqft,-1,"349,000",-1.0,-1.0,-1,House,8065 Rue du Bonheur,Laval (Saint-François),,10258769,https://www.realtor.ca/real-estate/22654037/8065-rue-du-bonheur-laval-saint-françois,-73.594362,45.672529
4,2,,-1,"349,000",-1.0,-1.0,-1,House,52 Rue des Forges,Blainville,,28101105,https://www.realtor.ca/real-estate/22659779/52-rue-des-forges-blainville-north,-73.88584816,45.6719866
4,2,,-1,"349,000",-1.0,-1.0,-1,House,1085 Rue Nicolas-Onassis,Blainville,,26736439,https://www.realtor.ca/real-estate/22628471/1085-rue-nicolas-onassis-blainville-north,-73.8820542,45.68033108
3,2,,-1,"349,000",-1.0,-1.0,-1,House,15955Z-15965Z Rue Champlain,Saint-Hyacinthe,,10300964,https://www.realtor.ca/real-estate/22589588/15955z-15965z-rue-champlain-saint-hyacinthe-saint-joseph,-72.932794,45.625671
4,2,,-1,"349,000",-1.0,-1.0,-1,House,46 Rue de la Champagne,Blainville,,13123835,https://www.realtor.ca/real-estate/22562891/46-rue-de-la-champagne-blainville-north,-73.88014,45.67954416
4,2,,-1,"349,000",-1.0,-1.0,-1,House,8140 Rue Jérémie,Terrebonne (La Plaine),,26544186,https://www.realtor.ca/real-estate/22526909/8140-rue-jérémie-terrebonne-la-plaine-lac-andré,-73.729373,45.793114
4,2,,-1,"349,000",-1.0,-1.0,-1,House,10537 Rue Belair,Montréal (Pierrefonds-Roxboro),,19212681,https://www.realtor.ca/real-estate/22662194/10537-rue-belair-montréal-pierrefonds-roxboro-pierrefondseast,-73.809744,45.514654
3,2,,-1,"349,000",-1.0,-1.0,-1,House,706 Carré Louis-Bourque,Saint-Jérôme,,15682824,https://www.realtor.ca/real-estate/22422613/706-carré-louis-bourque-saint-jérôme-saint-jérôme,-73.9907227,45.79291054
3,2,,-1,"349,000",-1.0,-1.0,-1,House,253 Rue Newton,Repentigny (Repentigny),,9860741,https://www.realtor.ca/real-estate/22441542/253-rue-newton-repentigny-repentigny,-73.42462019,45.78093714
3,2,,-1,"349,000",-1.0,-1.0,-1,House,68 Rue des Pinsons,Saint-Basile-le-Grand,,25199926,https://www.realtor.ca/real-estate/22660501/68-rue-des-pinsons-saint-basile-le-grand-village,-73.28837,45.513673
3,2,,-1,"349,000",-1.0,-1.0,-1,House,3622 Rue Julio,Laval (Fabreville),,12276942,https://www.realtor.ca/real-estate/22658521/3622-rue-julio-laval-fabreville-east,-73.81218005,45.56912427
5,2,,-1,"349,000",-1.0,-1.0,-1,House,6501 37e Avenue,Laval (Laval-Ouest),,12167300,https://www.realtor.ca/real-estate/22548323/6501-37e-avenue-laval-laval-ouest,-73.867043,45.546218
3,2,,-1,"349,000",-1.0,-1.0,-1,House,2244 Rue de la Rainette,Sainte-Marthe-sur-le-Lac,,19459439,https://www.realtor.ca/real-estate/22581487/2244-rue-de-la-rainette-sainte-marthe-sur-le-lac-north,-73.92780926,45.54135194
4,2,,-1,"349,000",-1.0,-1.0,-1,House,576 Rue du Ponceau,Sainte-Julie,,15203194,https://www.realtor.ca/real-estate/22593418/576-rue-du-ponceau-sainte-julie-de-larc-en-ciel,-73.32481137,45.5776919
4,2,,-1,"349,000",-1.0,-1.0,-1,House,1055 Rue Tremblay,Longueuil (Saint-Hubert),,24226448,https://www.realtor.ca/real-estate/22643739/1055-rue-tremblay-longueuil-saint-hubert-central,-73.423534,45.507932
3,2,,-1,"349,000",-1.0,-1.0,-1,House,355 Rue St-Michel,Repentigny (Le Gardeur),,18911283,https://www.realtor.ca/real-estate/22482165/355-rue-st-michel-repentigny-le-gardeur,-73.474362,45.752288
3,2,1260 sqft,-1,"349,000",-1.0,-1.0,-1,House,284 Rue Birch,Châteauguay,,18976691,https://www.realtor.ca/real-estate/22633695/284-rue-birch-châteauguay,-73.730403,45.379033
2,2,1454 sqft,-1,"349,000",-1.0,-1.0,-1,House,218 48e Avenue,Pointe-Calumet,,17791133,https://www.realtor.ca/real-estate/22613756/218-48e-avenue-pointe-calumet,-73.97243565,45.49428138
4,2,,-1,"349,000",-1.0,-1.0,-1,House,440 26e Avenue,Deux-Montagnes,,12857132,https://www.realtor.ca/real-estate/22663118/440-26e-avenue-deux-montagnes-north,-73.91632563,45.53910613
3,2,780.8 sqft,-1,"349,000",-1.0,-1.0,-1,House,148 Rue Beethoven,Châteauguay,,17582624,https://www.realtor.ca/real-estate/22660297/148-rue-beethoven-châteauguay,-73.715606,45.347574
5,3,,-1,"349,000",-1.0,-1.0,-1,House,89 Rue Montcalm,Longueuil (Le Vieux-Longueuil),,12827322,https://www.realtor.ca/real-estate/22541033/89-rue-montcalm-longueuil-le-vieux-longueuil-east,-73.479759,45.529966
4,2,,-1,"349,000",-1.0,-1.0,-1,House,2947 Boul. Roland-Therrien,Longueuil (Le Vieux-Longueuil),,25886644,https://www.realtor.ca/real-estate/22401316/2947-boul-roland-therrien-longueuil-le-vieux-longueuil-pierre-boucher,-73.451697,45.528383
3,2,,-1,"349,500",-1.0,-1.0,-1,House,352 Rue Edmond,Saint-Amable,,22301715,https://www.realtor.ca/real-estate/22644668/352-rue-edmond-saint-amable,-73.28902402,45.65156772
4,2,1145 sqft,-1,"349,800",-1.0,-1.0,-1,House,874 Rue Brault,Saint-Jean-sur-Richelieu,,9538114,https://www.realtor.ca/real-estate/22636898/874-rue-brault-saint-jean-sur-richelieu-saint-jean-sur-richelieu,-73.29859013,45.31129003
5,2,,-1,"349,900",-1.0,-1.0,-1,House,4226 Rue Durocher,Terrebonne (Terrebonne),,14064595,https://www.realtor.ca/real-estate/22506542/4226-rue-durocher-terrebonne-terrebonne-saint-louishauteville,-73.66274886,45.71753015
3,2,,-1,"349,900",-1.0,-1.0,-1,House,309 Rue des Sources,Saint-Eustache,,13148710,https://www.realtor.ca/real-estate/22384170/309-rue-des-sources-saint-eustache-west,-73.905256,45.561266
3,2,932.5 sqft,-1,"349,900",-1.0,-1.0,-1,House,108 Boul. de L'Assomption,Repentigny (Repentigny),,25482882,https://www.realtor.ca/real-estate/22514429/108-boul-de-lassomption-repentigny-repentigny,-73.480363,45.725376
3,2,,-1,"349,900",-1.0,-1.0,-1,House,1397 Rue des Cerisiers,Terrebonne (Lachenaie),,26298145,https://www.realtor.ca/real-estate/22654786/1397-rue-des-cerisiers-terrebonne-lachenaie-odiana,-73.65587813,45.72311394
4,2,,-1,"349,900",-1.0,-1.0,-1,House,44 Av. de Mey,Lorraine,,9686056,https://www.realtor.ca/real-estate/22644598/44-av-de-mey-lorraine,-73.78675605,45.68186005
3,2,,-1,"349,900",-1.0,-1.0,-1,House,31 Rue Jean-Marc-Dansro,Blainville,,22396723,https://www.realtor.ca/real-estate/22654477/31-rue-jean-marc-dansro-blainville-north,-73.9006813,45.69183895
3,2,,-1,"349,900",-1.0,-1.0,-1,House,216 Rue de l'Île-aux-Fraises,Terrebonne (Lachenaie),,11663247,https://www.realtor.ca/real-estate/22627936/216-rue-de-lîle-aux-fraises-terrebonne-lachenaie-des-moulins,-73.583331,45.70289
2,2,,-1,"349,900",-1.0,-1.0,-1,House,2567 Boul. Perrot,Notre-Dame-de-l'Île-Perrot,,13134330,https://www.realtor.ca/real-estate/21786193/2567-boul-perrot-notre-dame-de-lîle-perrot,-73.93120586,45.35822618
3,2,,-1,"349,900",-1.0,-1.0,-1,House,86 Rue Bruchési,Blainville,,19118119,https://www.realtor.ca/real-estate/22630597/86-rue-bruchési-blainville-east,-73.814027,45.648588
3,2,,-1,"349,900",-1.0,-1.0,-1,House,693 Boul. N.-P.-Lapierre,Sainte-Julie,,20797231,https://www.realtor.ca/real-estate/22629193/693-boul-n-p-lapierre-sainte-julie-du-grand-coteau,-73.34439274,45.58117704
3,2,,-1,"349,900",-1.0,-1.0,-1,House,185 Place Cloutier,Boisbriand,,26181876,https://www.realtor.ca/real-estate/22637306/185-place-cloutier-boisbriand-central,-73.83262335,45.60494339
4,2,1056 sqft,-1,"349,900",-1.0,-1.0,-1,House,1213 43e Avenue,Laval (Fabreville),,14190393,https://www.realtor.ca/real-estate/22408902/1213-43e-avenue-laval-fabreville-west,-73.84083089,45.57574787
4,2,,-1,"349,900",-1.0,-1.0,-1,House,1402 Rue Boissonneault,Mascouche,,14974576,https://www.realtor.ca/real-estate/22529075/1402-rue-boissonneault-mascouche-mascouche-heights,-73.655072,45.74117
3,2,,-1,"349,900",-1.0,-1.0,-1,House,213 Rue de Marseille,Saint-Eustache,,16201832,https://www.realtor.ca/real-estate/22658541/213-rue-de-marseille-saint-eustache-central-east,-73.87888075,45.57494886
3,2,,-1,"349,900",-1.0,-1.0,-1,House,204 Rue Gaston,Repentigny (Repentigny),,16750815,https://www.realtor.ca/real-estate/22656400/204-rue-gaston-repentigny-repentigny,-73.471479,45.738921
3,2,,-1,"349,900",-1.0,-1.0,-1,House,4215 Rue Nadeau,Longueuil (Saint-Hubert),,20109559,https://www.realtor.ca/real-estate/22660486/4215-rue-nadeau-longueuil-saint-hubert-orchard,-73.428811,45.484486
5,3,,-1,"349,900",-1.0,-1.0,-1,House,882-882A Av. Rose-de-Lima,Laval (Saint-Vincent-de-Paul),,28136936,https://www.realtor.ca/real-estate/22365272/882-882a-av-rose-de-lima-laval-saint-vincent-de-paul,-73.652381,45.601172
3,2,,-1,"349,900",-1.0,-1.0,-1,House,8101 Boul. Casavant O.,Saint-Hyacinthe,,12363700,https://www.realtor.ca/real-estate/22384161/8101-boul-casavant-o-saint-hyacinthe-douville,-72.975821,45.593068
5,2,,-1,"349,900",-1.0,-1.0,-1,House,7850 Boul. Laurier O.,Saint-Hyacinthe,,27099425,https://www.realtor.ca/real-estate/22486939/7850-boul-laurier-o-saint-hyacinthe-douville,-73.01452996,45.60099768
2,2,,-1,"349,900",-1.0,-1.0,-1,House,324 Rue Pelletier,Saint-Jérôme,,28562594,https://www.realtor.ca/real-estate/22409641/324-rue-pelletier-saint-jérôme-saint-jérôme,-74.01606842,45.7772731
3,2,,-1,"349,900",-1.0,-1.0,-1,House,63 Rue Dupuis,Saint-Isidore,,15913264,https://www.realtor.ca/real-estate/22634432/63-rue-dupuis-saint-isidore,-73.67410889,45.30156316
3,2,,-1,"349,900",-1.0,-1.0,-1,House,1285 Rue Coursol,Repentigny (Repentigny),,16571939,https://www.realtor.ca/real-estate/22530432/1285-rue-coursol-repentigny-repentigny,-73.42205961,45.786842
4,2,,-1,"349,900",-1.0,-1.0,-1,House,221 Rue Cousineau,Repentigny (Repentigny),,10412474,https://www.realtor.ca/real-estate/22641504/221-rue-cousineau-repentigny-repentigny,-73.420014,45.780191
4,2,,-1,"349,900",-1.0,-1.0,-1,House,248 Rue de Navarre,Repentigny (Repentigny),,12482234,https://www.realtor.ca/real-estate/22654173/248-rue-de-navarre-repentigny-repentigny,-73.429397,45.777174
3,2,,-1,"349,900",-1.0,-1.0,-1,House,216 Rue de l'Île-aux-Fraises,Terrebonne (Lachenaie),,11663247,https://www.realtor.ca/real-estate/22627936/216-rue-de-lîle-aux-fraises-terrebonne-lachenaie-des-moulins,-73.583331,45.70289
5,2,,-1,"349,900",-1.0,-1.0,-1,House,4226 Rue Durocher,Terrebonne (Terrebonne),,14064595,https://www.realtor.ca/real-estate/22506542/4226-rue-durocher-terrebonne-terrebonne-saint-louishauteville,-73.66274886,45.71753015
3,2,,-1,"349,900",-1.0,-1.0,-1,House,1397 Rue des Cerisiers,Terrebonne (Lachenaie),,26298145,https://www.realtor.ca/real-estate/22654786/1397-rue-des-cerisiers-terrebonne-lachenaie-odiana,-73.65587813,45.72311394
3,2,,-1,"350,000",-1.0,-1.0,-1,House,66 22e Avenue,Sainte-Marthe-sur-le-Lac,,14261297,https://www.realtor.ca/real-estate/22658200/66-22e-avenue-sainte-marthe-sur-le-lac-south,-73.93228926,45.5272404
4,2,,-1,"350,000",-1.0,-1.0,-1,House,6891 Rue des Pins,Terrebonne (La Plaine),,22453662,https://www.realtor.ca/real-estate/22496092/6891-rue-des-pins-terrebonne-la-plaine-laurierchartrand,-73.72722019,45.76092286
3,2,,-1,"350,000",-1.0,-1.0,-1,House,101 Rue de l'Étiage,Terrebonne (Lachenaie),,12616383,https://www.realtor.ca/real-estate/22654178/101-rue-de-létiage-terrebonne-lachenaie-city,-73.59637375,45.69488711
5,2,,-1,"350,000",-1.0,-1.0,-1,House,8 101e Avenue E.,Blainville,,28947229,https://www.realtor.ca/real-estate/22562729/8-101e-avenue-e-blainville-north,-73.897319,45.686867
3,2,,-1,"350,000",-1.0,-1.0,-1,House,1442 Rue Denys,Chambly,,12866392,https://www.realtor.ca/real-estate/22550887/1442-rue-denys-chambly,-73.30794,45.443081
3,2,,-1,"350,000",-1.0,-1.0,-1,House,572 Rue Jourdonnais,Saint-Jean-sur-Richelieu,,26531306,https://www.realtor.ca/real-estate/22642787/572-rue-jourdonnais-saint-jean-sur-richelieu-saint-jean-sur-richelieu,-73.282465,45.321378
5,2,,-1,"350,000",-1.0,-1.0,-1,House,119 Rue Hillsdale O.,Châteauguay,,15471848,https://www.realtor.ca/real-estate/22221220/119-rue-hillsdale-o-châteauguay,-73.72601725,45.34998112
4,2,,-1,"350,000",-1.0,-1.0,-1,House,875 Rue des Primevères,Laval (Sainte-Dorothée),,9177147,https://www.realtor.ca/real-estate/22626341/875-rue-des-primevères-laval-sainte-dorothée-east-islemère,-73.82058103,45.52444387
4,2,900 sqft,-1,"354,900",-1.0,-1.0,-1,House,2851 Rue Demers,Mascouche,,24880028,https://www.realtor.ca/real-estate/22637152/2851-rue-demers-mascouche-city,-73.605865,45.738087
3,2,,-1,"355,000",-1.0,-1.0,-1,House,4110 Boul. Gaétan-Boucher,Longueuil (Saint-Hubert),,26809058,https://www.realtor.ca/real-estate/22631236/4110-boul-gaétan-boucher-longueuil-saint-hubert-orchard,-73.42184259,45.48125029
2,2,,-1,"358,000",-1.0,-1.0,-1,House,26 Rue Goyette,Longueuil (Le Vieux-Longueuil),,13375619,https://www.realtor.ca/real-estate/22046639/26-rue-goyette-longueuil-le-vieux-longueuil-east,-73.473551,45.52659
4,2,,-1,"359,000",-1.0,-1.0,-1,House,211 Rue Lauzon,Saint-Eustache,,26371324,https://www.realtor.ca/real-estate/22665588/211-rue-lauzon-saint-eustache-west,-73.89858359,45.55569078
4,2,,-1,"359,000",-1.0,-1.0,-1,House,260 Rg du Bas-de-la-Rivière,Saint-Pie,,16762181,https://www.realtor.ca/real-estate/22465493/260-rg-du-bas-de-la-rivière-saint-pie,-72.970301,45.555515
5,2,1396 sqft,-1,"359,000",-1.0,-1.0,-1,House,97 Rue Melba,Châteauguay,,28706122,https://www.realtor.ca/real-estate/22659442/97-rue-melba-châteauguay,-73.739117,45.36922014
4,2,1300 sqft,-1,"359,000",-1.0,-1.0,-1,House,254 Rue Forest,Châteauguay,,27263908,https://www.realtor.ca/real-estate/22664718/254-rue-forest-châteauguay,-73.7299542,45.37245974
4,2,,-1,"359,000",-1.0,-1.0,-1,House,800 Rue Henri-Dunant,Deux-Montagnes,,21884755,https://www.realtor.ca/real-estate/22555042/800-rue-henri-dunant-deux-montagnes-south,-73.897178,45.54389
4,2,,-1,"359,000",-1.0,-1.0,-1,House,3650 Rue de l'Université,Longueuil (Saint-Hubert),,25077328,https://www.realtor.ca/real-estate/22618667/3650-rue-de-luniversité-longueuil-saint-hubert-le-boisé-de-saint-hubert,-73.37830929,45.46493159
3,2,,-1,"359,000",-1.0,-1.0,-1,House,99 31e Avenue,Sainte-Marthe-sur-le-Lac,,23922420,https://www.realtor.ca/real-estate/20488955/99-31e-avenue-sainte-marthe-sur-le-lac-south,-73.940111,45.524309
4,2,,-1,"359,000",-1.0,-1.0,-1,House,5967 Av. Martel,Longueuil (Saint-Hubert),,18881017,https://www.realtor.ca/real-estate/22610283/5967-av-martel-longueuil-saint-hubert-street-names-m,-73.40357115,45.50373554
3,2,,-1,"359,000",-1.0,-1.0,-1,House,170 Rue Jacques-Cartier,Salaberry-de-Valleyfield,,21768784,https://www.realtor.ca/real-estate/21705544/170-rue-jacques-cartier-salaberry-de-valleyfield-salaberry-de-valleyfield,-74.12369767,45.24751529
3,2,,-1,"359,000",-1.0,-1.0,-1,House,215 Boul. Rameau,Châteauguay,,11399424,https://www.realtor.ca/real-estate/22577535/215-boul-rameau-châteauguay,-73.714682,45.348693
4,2,,-1,"359,000",-1.0,-1.0,-1,House,71-73 Rue St-Patrick S.,Farnham,,13942179,https://www.realtor.ca/real-estate/22375071/71-73-rue-st-patrick-s-farnham,-72.98062708,45.27812534
3,2,,-1,"359,500",-1.0,-1.0,-1,House,139 Rue Charbonneau,Rosemère,,25100763,https://www.realtor.ca/real-estate/22591217/139-rue-charbonneau-rosemère,-73.783509,45.637391
3,3,99.68 m2,-1,"359,900",-1.0,-1.0,-1,House,195 Boul. Jacques-Cartier E.,Longueuil (Le Vieux-Longueuil),,16629740,https://www.realtor.ca/real-estate/22629362/195-boul-jacques-cartier-e-longueuil-le-vieux-longueuil-east,-73.454517,45.54544
4,2,,-1,"359,900",-1.0,-1.0,-1,House,315 Rue de la Rafale,Sainte-Marthe-sur-le-Lac,,28702474,https://www.realtor.ca/real-estate/22638274/315-rue-de-la-rafale-sainte-marthe-sur-le-lac-north,-73.941143,45.536163
3,2,,-1,"359,900",-1.0,-1.0,-1,House,144 Rue Mont-Royal,Laval (Sainte-Rose),,10635935,https://www.realtor.ca/real-estate/22588420/144-rue-mont-royal-laval-sainte-rose-old-ste-rose,-73.79213403,45.60856646
4,2,93.71 m2,-1,"359,900",-1.0,-1.0,-1,House,30 Rue Desparois,Mercier,,10787576,https://www.realtor.ca/real-estate/22646977/30-rue-desparois-mercier,-73.74719188,45.30235535
3,2,,-1,"359,900",-1.0,-1.0,-1,House,1705 Rue Balmoral,Longueuil (Saint-Hubert),,10238081,https://www.realtor.ca/real-estate/22608129/1705-rue-balmoral-longueuil-saint-hubert-laflèche,-73.460557,45.490143
3,2,,-1,"359,900",-1.0,-1.0,-1,House,78 Rue Beauchemin,Saint-Basile-le-Grand,,16447910,https://www.realtor.ca/real-estate/22588541/78-rue-beauchemin-saint-basile-le-grand-village,-73.29989167,45.52305725
5,2,,-1,"359,900",-1.0,-1.0,-1,House,58 Rue Bourbon,Repentigny (Repentigny),,26012103,https://www.realtor.ca/real-estate/22654569/58-rue-bourbon-repentigny-repentigny,-73.466786,45.729202
4,2,,-1,"359,900",-1.0,-1.0,-1,House,162 Rue Villandré,Repentigny (Le Gardeur),,23793845,https://www.realtor.ca/real-estate/22623935/162-rue-villandré-repentigny-le-gardeur,-73.4622992,45.76620829
4,2,,-1,"359,900",-1.0,-1.0,-1,House,3785 Rue Raymond,Terrebonne (Terrebonne),,12547983,https://www.realtor.ca/real-estate/22520346/3785-rue-raymond-terrebonne-terrebonne-west,-73.802796,45.702068
3,2,,-1,"359,900",-1.0,-1.0,-1,House,296 Rue De Tilly,Terrebonne (Lachenaie),,24567608,https://www.realtor.ca/real-estate/22619102/296-rue-de-tilly-terrebonne-lachenaie-carrefour-des-fleurs,-73.514957,45.711092
3,2,,-1,"359,900",-1.0,-1.0,-1,House,19 Rue de l'Ancre,Saint-Eustache,,11326636,https://www.realtor.ca/real-estate/22612710/19-rue-de-lancre-saint-eustache-west,-73.903476,45.561724
4,2,,-1,"362,000",-1.0,-1.0,-1,House,2195 Av. Auguste,Brossard,,17213927,https://www.realtor.ca/real-estate/22663419/2195-av-auguste-brossard-street-names-a,-73.458699,45.483372
4,2,,-1,"364,900",-1.0,-1.0,-1,House,1580 Rue des Bernaches,Terrebonne (La Plaine),,27397390,https://www.realtor.ca/real-estate/22611804/1580-rue-des-bernaches-terrebonne-la-plaine-laurierchartrand,-73.705586,45.756106
4,2,1086 sqft,-1,"364,900",-1.0,-1.0,-1,House,114 Rue Pelletier,Saint-Constant,,17692478,https://www.realtor.ca/real-estate/22605433/114-rue-pelletier-saint-constant,-73.573867,45.376853
3,2,,-1,"365,000",-1.0,-1.0,-1,House,2371 Rue Ouellette,Terrebonne (La Plaine),,23644627,https://www.realtor.ca/real-estate/22557640/2371-rue-ouellette-terrebonne-la-plaine-laurierchartrand,-73.6989538,45.76296609
4,2,,-1,"365,000",-1.0,-1.0,-1,House,13675 Rue du Merlot,Mirabel,,19926691,https://www.realtor.ca/real-estate/22544192/13675-rue-du-merlot-mirabel-saint-canut,-74.07853603,45.70375921
4,2,112 m2,-1,"365,000",-1.0,-1.0,-1,House,1675 Rue de Charente,Terrebonne (Terrebonne),,17051830,https://www.realtor.ca/real-estate/22655609/1675-rue-de-charente-terrebonne-terrebonne-saint-louishauteville,-73.67742997,45.71689745
3,2,632.92 sqft,-1,"365,000",-1.0,-1.0,-1,House,4105 Rue Nadeau,Longueuil (Saint-Hubert),,23186124,https://www.realtor.ca/real-estate/22637232/4105-rue-nadeau-longueuil-saint-hubert-orchard,-73.427748,45.485286
4,2,,-1,"365,000",-1.0,-1.0,-1,House,1728 Rue des Capucines,Saint-Lazare,,11914983,https://www.realtor.ca/real-estate/22656764/1728-rue-des-capucines-saint-lazare-central-saint-lazare,-74.13559402,45.40635457
3,2,1200 sqft,-1,"365,000",-1.0,-1.0,-1,House,109 Mtée de la Grande-Ligne,Saint-Urbain-Premier,,18045380,https://www.realtor.ca/real-estate/22249543/109-mtée-de-la-grande-ligne-saint-urbain-premier,-73.715911,45.233898
5,2,,-1,"365,000",-1.0,-1.0,-1,House,504Z-506Z Boul. Curé-Poirier E.,Longueuil (Le Vieux-Longueuil),,19467817,https://www.realtor.ca/real-estate/22521042/504z-506z-boul-curé-poirier-e-longueuil-le-vieux-longueuil-east,-73.47844824,45.53509148
5,2,,-1,"365,000",-1.0,-1.0,-1,House,1032 Rue de Liverpool,Laval (Fabreville),,16916123,https://www.realtor.ca/real-estate/22535957/1032-rue-de-liverpool-laval-fabreville-east,-73.829099,45.579372
2,2,,-1,"365,000",-1.0,-1.0,-1,House,251 Ch. des Patriotes E.,Saint-Jean-sur-Richelieu,,25063312,https://www.realtor.ca/real-estate/22397510/251-ch-des-patriotes-e-saint-jean-sur-richelieu-saint-athanase,-73.256766,45.338025
3,2,,-1,"365,900",-1.0,-1.0,-1,House,983 3e Avenue,Laval (Fabreville),,17950563,https://www.realtor.ca/real-estate/22414771/983-3e-avenue-laval-fabreville-west,-73.866183,45.558839
3,2,1373 sqft,-1,"368,000",-1.0,-1.0,-1,House,544 Rue Jacques-Cartier S.,Saint-Jean-sur-Richelieu,,25422380,https://www.realtor.ca/real-estate/22342045/544-rue-jacques-cartier-s-saint-jean-sur-richelieu-saint-jean-sur-richelieu,-73.256414,45.272108
4,2,842 sqft,-1,"369,000",-1.0,-1.0,-1,House,7290 Rue Massillon,Laval (Laval-Ouest),,23548445,https://www.realtor.ca/real-estate/22514416/7290-rue-massillon-laval-laval-ouest,-73.85955887,45.54650166
4,2,,-1,"369,000",-1.0,-1.0,-1,House,45 Rue de l'Aube,Sainte-Madeleine,,20226562,https://www.realtor.ca/real-estate/22629596/45-rue-de-laube-sainte-madeleine,-73.086519,45.593715
4,2,,-1,"369,000",-1.0,-1.0,-1,House,151 Rue Trenton,Châteauguay,,25621592,https://www.realtor.ca/real-estate/22577752/151-rue-trenton-châteauguay,-73.737362,45.351744
3,2,,-1,"369,000",-1.0,-1.0,-1,House,722 Ch. du Lac-St-Louis,Léry,,23384646,https://www.realtor.ca/real-estate/22424391/722-ch-du-lac-st-louis-léry,-73.792281,45.354444
3,2,1792.19 sqft,-1,"369,000",-1.0,-1.0,-1,House,11931 Rue Pavillon,Montréal (Pierrefonds-Roxboro),,15425113,https://www.realtor.ca/real-estate/22456365/11931-rue-pavillon-montréal-pierrefonds-roxboro-pierrefondscentral-east,-73.83021,45.512835
5,2,,-1,"369,000",-1.0,-1.0,-1,House,59 Rue Léon-Giroux,Coteau-du-Lac,,12438016,https://www.realtor.ca/real-estate/22602247/59-rue-léon-giroux-coteau-du-lac,-74.182164,45.29542
4,2,1482 sqft,-1,"369,000",-1.0,-1.0,-1,House,931 Boul. René-Lévesque,Saint-Eustache,,11111240,https://www.realtor.ca/real-estate/22633905/931-boul-rené-lévesque-saint-eustache-north-west,-73.93685,45.580382
3,2,,-1,"369,000",-1.0,-1.0,-1,House,1549 Rue O'Brien,Chambly,,14832173,https://www.realtor.ca/real-estate/22161511/1549-rue-obrien-chambly,-73.28807965,45.43399263
2,2,,-1,"369,000",-1.0,-1.0,-1,House,475 Rue Daoust,Sainte-Julie,,27727429,https://www.realtor.ca/real-estate/22525979/475-rue-daoust-sainte-julie-du-vieux-village,-73.33803369,45.58895152
4,2,,-1,"369,000",-1.0,-1.0,-1,House,2468 Ch. des Patriotes,Richelieu,,20132849,https://www.realtor.ca/real-estate/21598367/2468-ch-des-patriotes-richelieu,-73.247576,45.407411
3,2,1824 sqft,-1,"369,000",-1.0,-1.0,-1,House,1596 39e Avenue (P.-a.-T.),Montréal (Rivière-des-Prairies/Pointe-aux-Trembles),,23380518,https://www.realtor.ca/real-estate/22628449/1596-39e-avenue-p-a-t-montréal-rivière-des-prairiespointe-aux-trembles-pointe-aux-trembles,-73.500145,45.661609
4,2,,-1,"369,000",-1.0,-1.0,-1,House,7645 Boul. Lévesque E.,Laval (Duvernay),,18274770,https://www.realtor.ca/real-estate/22497283/7645-boul-lévesque-e-laval-duvernay-east,-73.59747,45.654995
3,2,1218 sqft,-1,"369,000",-1.0,-1.0,-1,House,5825 Rue Paul,Montréal (Montréal-Nord),,21842825,https://www.realtor.ca/real-estate/22659394/5825-rue-paul-montréal-montréal-nord,-73.627909,45.616582
4,2,,-1,"369,000",-1.0,-1.0,-1,House,10240 Rue des Chardonnerets,Mirabel,,20463702,https://www.realtor.ca/real-estate/22601095/10240-rue-des-chardonnerets-mirabel-saint-canut,-74.07798171,45.70784524
5,2,,-1,"369,000",-1.0,-1.0,-1,House,862 3e Avenue,Laval (Fabreville),,17530301,https://www.realtor.ca/real-estate/22654719/862-3e-avenue-laval-fabreville-west,-73.864027,45.556192
3,2,,-1,"369,000",-1.0,-1.0,-1,House,1175 Rue John-Tapp,Blainville,,22509676,https://www.realtor.ca/real-estate/22659399/1175-rue-john-tapp-blainville-north,-73.88960067,45.68298011
5,2,,-1,"369,900",-1.0,-1.0,-1,House,8 Rue Champlain,Oka,,22899093,https://www.realtor.ca/real-estate/22640469/8-rue-champlain-oka,-74.07552514,45.46979209
4,2,,-1,"369,900",-1.0,-1.0,-1,House,2-2A Place Fairmount,Châteauguay,,23687882,https://www.realtor.ca/real-estate/22464104/2-2a-place-fairmount-châteauguay,-73.727468,45.36335
5,2,,-1,"369,900",-1.0,-1.0,-1,House,80 Rue Champigny,Repentigny (Repentigny),,9837886,https://www.realtor.ca/real-estate/22654643/80-rue-champigny-repentigny-repentigny,-73.472383,45.726918
4,2,,-1,"369,900",-1.0,-1.0,-1,House,57 Rue Nicoud,Charlemagne,,14109325,https://www.realtor.ca/real-estate/22633666/57-rue-nicoud-charlemagne,-73.48647288,45.72655006
5,2,,-1,"369,900",-1.0,-1.0,-1,House,22 Place Marin,Repentigny (Repentigny),,26928351,https://www.realtor.ca/real-estate/22633812/22-place-marin-repentigny-repentigny,-73.468549,45.731249
4,2,,-1,"369,900",-1.0,-1.0,-1,House,7840 Av. Azilda,Montréal (Anjou),,27013371,https://www.realtor.ca/real-estate/22629207/7840-av-azilda-montréal-anjou,-73.556848,45.61428
3,2,,-1,"369,900",-1.0,-1.0,-1,House,1665 Boul. St-José,La Prairie,,18754969,https://www.realtor.ca/real-estate/22520167/1665-boul-st-josé-la-prairie-le-christ-roi,-73.49119513,45.39610404
4,2,912 sqft,-1,"369,900",-1.0,-1.0,-1,House,3845 Rue Murielle,Laval (Fabreville),,18981940,https://www.realtor.ca/real-estate/22615392/3845-rue-murielle-laval-fabreville-east,-73.82167122,45.57413164
5,2,,-1,"369,900",-1.0,-1.0,-1,House,460 Rue Sauriol,Saint-Eustache,,24525881,https://www.realtor.ca/real-estate/22526098/460-rue-sauriol-saint-eustache-central-east,-73.88898237,45.57438486
4,2,970 sqft,-1,"369,900",-1.0,-1.0,-1,House,310 Place des Cascades,Laval (Duvernay),,26380904,https://www.realtor.ca/real-estate/22635854/310-place-des-cascades-laval-duvernay-east,-73.602788,45.653329
3,2,,-1,"369,900",-1.0,-1.0,-1,House,667 Rue Fabiola,Laval (Fabreville),,12033575,https://www.realtor.ca/real-estate/22602241/667-rue-fabiola-laval-fabreville-east,-73.80541,45.582202
4,2,,-1,"369,900",-1.0,-1.0,-1,House,11A Place de l'Église,Saint-Jacques-le-Mineur,,15474323,https://www.realtor.ca/real-estate/22521005/11a-place-de-léglise-saint-jacques-le-mineur,-73.41624891,45.27907279
4,2,,-1,"369,900",-1.0,-1.0,-1,House,45 Rue Sagard,Laval (Auteuil),,9737830,https://www.realtor.ca/real-estate/22656379/45-rue-sagard-laval-auteuil-others,-73.754212,45.632995
4,2,,-1,"369,900",-1.0,-1.0,-1,House,439 Rue Monseigneur-Coderre,Saint-Amable,,20548209,https://www.realtor.ca/real-estate/22657354/439-rue-monseigneur-coderre-saint-amable,-73.30347229,45.63577401
4,2,,-1,"369,900",-1.0,-1.0,-1,House,3 Rue du Domaine,Sainte-Martine,,18496416,https://www.realtor.ca/real-estate/22654384/3-rue-du-domaine-sainte-martine,-73.78345561,45.26527195
4,2,,-1,"370,000",-1.0,-1.0,-1,House,2671 Rue Poupart,Terrebonne (La Plaine),,12067917,https://www.realtor.ca/real-estate/22534714/2671-rue-poupart-terrebonne-la-plaine-laurierchartrand,-73.702509,45.766352
3,2,,-1,"370,000",-1.0,-1.0,-1,House,4175 Rue Frenette,Laval (Fabreville),,16401648,https://www.realtor.ca/real-estate/22630737/4175-rue-frenette-laval-fabreville-west,-73.852628,45.563893
6,2,,-1,"372,900",-1.0,-1.0,-1,House,199 Rue David S.,Saint-Amable,,14553880,https://www.realtor.ca/real-estate/22458922/199-rue-david-s-saint-amable,-73.29557415,45.64138074
4,2,,-1,"372,900",-1.0,-1.0,-1,House,89 Rue de Normandie,Montréal (Rivière-des-Prairies/Pointe-aux-Trembles),,20053867,https://www.realtor.ca/real-estate/22602287/89-rue-de-normandie-montréal-rivière-des-prairiespointe-aux-trembles-pointe-aux-trembles,-73.493095,45.647087
4,2,,-1,"373,000",-1.0,-1.0,-1,House,399 Rue Marquette,Deux-Montagnes,,22765239,https://www.realtor.ca/real-estate/22608161/399-rue-marquette-deux-montagnes-north,-73.899916,45.55094761
4,2,,-1,"374,000",-1.0,-1.0,-1,House,505 Rue du Titanic,Sainte-Catherine,,12344303,https://www.realtor.ca/real-estate/22657407/505-rue-du-titanic-sainte-catherine,-73.546565,45.395086
3,2,,-1,"374,000",-1.0,-1.0,-1,House,568 Ch. de St-Jean,La Prairie,,12867009,https://www.realtor.ca/real-estate/22610233/568-ch-de-st-jean-la-prairie-le-fort-neuf,-73.48756365,45.41586194
5,2,,-1,"374,700",-1.0,-1.0,-1,House,148 Rue Payette,Repentigny (Le Gardeur),,25582791,https://www.realtor.ca/real-estate/22519770/148-rue-payette-repentigny-le-gardeur,-73.462978,45.763587
3,2,,-1,"374,700",-1.0,-1.0,-1,House,32 Rue Bellefeuille,Repentigny (Repentigny),,24646534,https://www.realtor.ca/real-estate/22626851/32-rue-bellefeuille-repentigny-repentigny,-73.430584,45.756904
4,2,,-1,"374,700",-1.0,-1.0,-1,House,41 Rue Beauchesne,Repentigny (Repentigny),,20141763,https://www.realtor.ca/real-estate/22573022/41-rue-beauchesne-repentigny-repentigny,-73.419535,45.769874
3,2,,-1,"374,900",-1.0,-1.0,-1,House,880 Rue Beauchesne,Repentigny (Repentigny),,14271491,https://www.realtor.ca/real-estate/22434581/880-rue-beauchesne-repentigny-repentigny,-73.43100442,45.77120397
4,2,,-1,"374,900",-1.0,-1.0,-1,House,3955 Rue Raymond,Terrebonne (Terrebonne),,28089884,https://www.realtor.ca/real-estate/22654796/3955-rue-raymond-terrebonne-terrebonne-west,-73.80336574,45.7048839
4,2,,-1,"374,900",-1.0,-1.0,-1,House,439 Rue Arthur-Foucher,Repentigny (Le Gardeur),,10697926,https://www.realtor.ca/real-estate/22512464/439-rue-arthur-foucher-repentigny-le-gardeur,-73.474351,45.762026
3,3,,-1,"374,900",-1.0,-1.0,-1,House,45 Rue Simard,Sainte-Anne-des-Plaines,,11393290,https://www.realtor.ca/real-estate/21875892/45-rue-simard-sainte-anne-des-plaines,-73.81943302,45.75331818
5,2,,-1,"374,900",-1.0,-1.0,-1,House,1152 Av. Louise,Mascouche,,22335261,https://www.realtor.ca/real-estate/22643545/1152-av-louise-mascouche-mascouche-heights,-73.677681,45.735629
3,2,,-1,"374,900",-1.0,-1.0,-1,House,317 Rue de Vimy,Repentigny (Repentigny),,19624102,https://www.realtor.ca/real-estate/22590627/317-rue-de-vimy-repentigny-repentigny,-73.46506163,45.73516405
3,3,,-1,"374,900",-1.0,-1.0,-1,House,31 Rue Descartes,Laval (Auteuil),,24674078,https://www.realtor.ca/real-estate/22517152/31-rue-descartes-laval-auteuil-others,-73.729158,45.676137
3,2,140 m2,-1,"374,900",-1.0,-1.0,-1,House,222 Rue Réjean,Saint-Joseph-du-Lac,,16225641,https://www.realtor.ca/real-estate/22654711/222-rue-réjean-saint-joseph-du-lac-south,-73.97588542,45.52027486
4,2,,-1,"374,900",-1.0,-1.0,-1,House,53 Rue Albert-Laberge,Beauharnois,,28534720,https://www.realtor.ca/real-estate/22597931/53-rue-albert-laberge-beauharnois-beauharnois,-73.88196127,45.29865101
4,2,3500 sqft,-1,"374,900",-1.0,-1.0,-1,House,1359 Rg Notre-Dame,Saint-Rémi,,16422020,https://www.realtor.ca/real-estate/22236559/1359-rg-notre-dame-saint-rémi,-73.63855566,45.25051042
5,2,,-1,"374,900",-1.0,-1.0,-1,House,1610 Rue des Jésuites,Chambly,,27549111,https://www.realtor.ca/real-estate/22662656/1610-rue-des-jésuites-chambly,-73.30655583,45.43882025
4,2,1040 sqft,-1,"375,000",-1.0,-1.0,-1,House,3860 Rue Marquette,Laval (Fabreville),,17029507,https://www.realtor.ca/real-estate/22647465/3860-rue-marquette-laval-fabreville-east,-73.820387,45.572607
3,2,,-1,"375,000",-1.0,-1.0,-1,House,1394 Rue Nielsen,Longueuil (Saint-Hubert),,12739757,https://www.realtor.ca/real-estate/22586627/1394-rue-nielsen-longueuil-saint-hubert-laflèche,-73.461459,45.499934
6,2,,-1,"375,000",-1.0,-1.0,-1,House,3560 Rue Henriette,Laval (Fabreville),,17434860,https://www.realtor.ca/real-estate/22411146/3560-rue-henriette-laval-fabreville-east,-73.808725,45.573138
3,2,147.67 m2,-1,"375,000",-1.0,-1.0,-1,House,107 Rg du Haut-de-la-Rivière,Saint-Damase,,19170885,https://www.realtor.ca/real-estate/22488520/107-rg-du-haut-de-la-rivière-saint-damase,-72.9854604,45.47804076
2,2,,-1,"375,000",-1.0,-1.0,-1,House,4390 Boul. Gaétan-Boucher,Longueuil (Saint-Hubert),,24571908,https://www.realtor.ca/real-estate/22622985/4390-boul-gaétan-boucher-longueuil-saint-hubert-parc-de-la-cité,-73.424596,45.47921
4,2,86.47 m2,-1,"375,000",-1.0,-1.0,-1,House,1526 Rue Duvernay,Chambly,,24876031,https://www.realtor.ca/real-estate/22622862/1526-rue-duvernay-chambly,-73.28539456,45.43416579
4,2,,-1,"375,000",-1.0,-1.0,-1,House,1205 Rue de Chamonix,Longueuil (Saint-Hubert),,9787843,https://www.realtor.ca/real-estate/22642697/1205-rue-de-chamonix-longueuil-saint-hubert-central,-73.418071,45.507073
5,2,,-1,"375,000",-1.0,-1.0,-1,House,528 Rue des Capucines,Sainte-Julie,,20979721,https://www.realtor.ca/real-estate/22625847/528-rue-des-capucines-sainte-julie-de-la-vallée,-73.33071634,45.59846788
4,2,100.3 m2,-1,"375,000",-1.0,-1.0,-1,House,200 Rue Cantin,Terrebonne (Lachenaie),,20911665,https://www.realtor.ca/real-estate/22663152/200-rue-cantin-terrebonne-lachenaie-des-moulins,-73.58622731,45.69528804
3,2,,-1,"375,000",-1.0,-1.0,-1,House,165 Rue Gascon,Laval (Saint-François),,26778906,https://www.realtor.ca/real-estate/22618674/165-rue-gascon-laval-saint-françois,-73.62834578,45.68042176
2,2,,-1,"375,000",-1.0,-1.0,-1,House,120 Rue de Liège,Châteauguay,,17565354,https://www.realtor.ca/real-estate/22654721/120-rue-de-liège-châteauguay,-73.73249625,45.35757221
3,2,,-1,"375,000",-1.0,-1.0,-1,House,3661 Boul. Mountainview,Longueuil (Saint-Hubert),,16531806,https://www.realtor.ca/real-estate/22625401/3661-boul-mountainview-longueuil-saint-hubert-le-boisé-de-saint-hubert,-73.379524,45.465502
4,2,,-1,"375,000",-1.0,-1.0,-1,House,258 Rue de Bretagne,Repentigny (Repentigny),,20126275,https://www.realtor.ca/real-estate/22336259/258-rue-de-bretagne-repentigny-repentigny,-73.464867,45.728493
3,2,,-1,"378,000",-1.0,-1.0,-1,House,1855 Rue Marchand,Laval (Duvernay),,18108298,https://www.realtor.ca/real-estate/22375126/1855-rue-marchand-laval-duvernay-others,-73.689964,45.592187
4,2,988 sqft,-1,"378,800",-1.0,-1.0,-1,House,18 Rue de la Montagne,Laval (Sainte-Rose),,15472367,https://www.realtor.ca/real-estate/22655251/18-rue-de-la-montagne-laval-sainte-rose-old-ste-rose,-73.780486,45.626226
4,2,,-1,"379,000",-1.0,-1.0,-1,House,83-89 Rue Gilmore,Mont-Saint-Grégoire,,19369932,https://www.realtor.ca/real-estate/22577547/83-89-rue-gilmore-mont-saint-grégoire,-73.16302805,45.33713633
3,2,94.7 m2,-1,"379,000",-1.0,-1.0,-1,House,770 Rue Ménard,Longueuil (Saint-Hubert),,26533769,https://www.realtor.ca/real-estate/22634478/770-rue-ménard-longueuil-saint-hubert-street-names-m,-73.407988,45.506247
4,2,,-1,"379,000",-1.0,-1.0,-1,House,176 Rue Bourgeois,Saint-Amable,,21365789,https://www.realtor.ca/real-estate/22543692/176-rue-bourgeois-saint-amable,-73.30095699,45.63756279
4,2,,-1,"379,000",-1.0,-1.0,-1,House,174 Rue Maillou,Saint-Eustache,,28172985,https://www.realtor.ca/real-estate/22530741/174-rue-maillou-saint-eustache-east,-73.86326761,45.58280352
3,2,1392 sqft,-1,"379,000",-1.0,-1.0,-1,House,5303Z Rue Duchesneau,Montréal (Mercier/Hochelaga-Maisonneuve),,14992930,https://www.realtor.ca/real-estate/22631392/5303z-rue-duchesneau-montréal-mercierhochelaga-maisonneuve-mercier,-73.53338378,45.61206579
4,2,,-1,"379,000",-1.0,-1.0,-1,House,960 Rue des Seigneurs E.,Saint-Hyacinthe,,11914329,https://www.realtor.ca/real-estate/22622509/960-rue-des-seigneurs-e-saint-hyacinthe-saint-joseph,-72.9210007,45.61956446
3,2,,-1,"379,000",-1.0,-1.0,-1,House,1300 1re Rue,Richelieu,,24999834,https://www.realtor.ca/real-estate/22267009/1300-1re-rue-richelieu,-73.25422468,45.44216789
4,2,,-1,"379,000",-1.0,-1.0,-1,House,263 Rue Orléans,Saint-Eustache,,19261370,https://www.realtor.ca/real-estate/22632933/263-rue-orléans-saint-eustache-central-east,-73.885132,45.575362
4,2,,-1,"379,000",-1.0,-1.0,-1,House,324 Mtée de l'Église,Saint-Colomban,,25013495,https://www.realtor.ca/real-estate/21412466/324-mtée-de-léglise-saint-colomban,-74.135332,45.73778562
3,2,109 sqft,-1,"379,000",-1.0,-1.0,-1,House,161 Rue Guillaume-Beaudoin,Terrebonne (Lachenaie),,22969054,https://www.realtor.ca/real-estate/22622982/161-rue-guillaume-beaudoin-terrebonne-lachenaie-carrefour-des-fleurs,-73.52296342,45.71943614
4,2,,-1,"379,000",-1.0,-1.0,-1,House,50 Rue Robespierre,Repentigny (Repentigny),,10580431,https://www.realtor.ca/real-estate/22626793/50-rue-robespierre-repentigny-repentigny,-73.412973,45.77934
3,2,,-1,"379,000",-1.0,-1.0,-1,House,11825 Av. Pigeon,Montréal (Montréal-Nord),,13038397,https://www.realtor.ca/real-estate/22605770/11825-av-pigeon-montréal-montréal-nord,-73.635842,45.603816
4,2,,-1,"379,000",-1.0,-1.0,-1,House,639 Rue de la Rivière-aux-Pins,Boucherville,,10335386,https://www.realtor.ca/real-estate/22656753/639-rue-de-la-rivière-aux-pins-boucherville-rivière-aux-pins,-73.444782,45.60959
5,2,,-1,"379,000",-1.0,-1.0,-1,House,425 Rue Jean-Claude,Bois-des-Filion,,20196035,https://www.realtor.ca/real-estate/22601194/425-rue-jean-claude-bois-des-filion,-73.754466,45.663702
3,2,,-1,"379,000",-1.0,-1.0,-1,House,37 36e Avenue,Bois-des-Filion,,11602454,https://www.realtor.ca/real-estate/22666499/37-36e-avenue-bois-des-filion,-73.754666,45.665703
4,2,,-1,"379,000",-1.0,-1.0,-1,House,2496 Rue Patrick,Terrebonne (Lachenaie),,15919058,https://www.realtor.ca/real-estate/22577542/2496-rue-patrick-terrebonne-lachenaie-des-moulins,-73.58459648,45.6961782
3,2,1385 sqft,-1,"379,800",-1.0,-1.0,-1,House,5300Z Rue Gabriele-Frascadore,Montréal (Mercier/Hochelaga-Maisonneuve),,17797832,https://www.realtor.ca/real-estate/22429646/5300z-rue-gabriele-frascadore-montréal-mercierhochelaga-maisonneuve-mercier,-73.533397,45.612071
4,2,,-1,"379,900",-1.0,-1.0,-1,House,12295 Av. Corbeil,Montréal (Montréal-Nord),,17013602,https://www.realtor.ca/real-estate/22664344/12295-av-corbeil-montréal-montréal-nord,-73.62362808,45.61727295
4,2,,-1,"379,900",-1.0,-1.0,-1,House,403 8e Avenue,Saint-Jean-sur-Richelieu,,23261345,https://www.realtor.ca/real-estate/22483288/403-8e-avenue-saint-jean-sur-richelieu-iberville,-73.23506513,45.31038995
3,2,,-1,"379,900",-1.0,-1.0,-1,House,537 Rue St-Lambert,Salaberry-de-Valleyfield,,19811245,https://www.realtor.ca/real-estate/22658558/537-rue-st-lambert-salaberry-de-valleyfield-salaberry-de-valleyfield,-74.153387,45.245441
5,2,,-1,"379,900",-1.0,-1.0,-1,House,13900 Av. Vertefeuille,Saint-Hyacinthe,,15323532,https://www.realtor.ca/real-estate/22232392/13900-av-vertefeuille-saint-hyacinthe-sainte-rosalie,-72.9019252,45.64435395
4,2,,-1,"379,900",-1.0,-1.0,-1,House,27A Rue Brière,Saint-Jacques-le-Mineur,,18902128,https://www.realtor.ca/real-estate/22521040/27a-rue-brière-saint-jacques-le-mineur,-73.41621178,45.26866836
6,3,2096 sqft,-1,"379,900",-1.0,-1.0,-1,House,121 Rue Rapin,Salaberry-de-Valleyfield,,13062278,https://www.realtor.ca/real-estate/22643513/121-rue-rapin-salaberry-de-valleyfield-saint-timothée,-74.09682717,45.2760515
4,2,,-1,"379,900",-1.0,-1.0,-1,House,14 Rue Chamberry,Pointe-des-Cascades,,28787088,https://www.realtor.ca/real-estate/22519000/14-rue-chamberry-pointe-des-cascades,-73.9750778,45.33208117
4,2,,-1,"379,900",-1.0,-1.0,-1,House,1682 Rue Chénier,Terrebonne (Lachenaie),,9426498,https://www.realtor.ca/real-estate/22592676/1682-rue-chénier-terrebonne-lachenaie-city,-73.61446,45.69697
5,2,,-1,"379,900",-1.0,-1.0,-1,House,2484 Rue Charbonneau,Terrebonne (Terrebonne),,24315973,https://www.realtor.ca/real-estate/22639529/2484-rue-charbonneau-terrebonne-terrebonne-west,-73.79444561,45.68921455
2,2,,-1,"379,900",-1.0,-1.0,-1,House,775 Côte de Terrebonne,Terrebonne (Terrebonne),,15461976,https://www.realtor.ca/real-estate/22663683/775-côte-de-terrebonne-terrebonne-terrebonne-côte-terrebonne,-73.73278168,45.68141961
4,3,,-1,"379,900",-1.0,-1.0,-1,House,1754-1756 Rue des Artisans,Terrebonne (Terrebonne),,22074867,https://www.realtor.ca/real-estate/22638233/1754-1756-rue-des-artisans-terrebonne-terrebonne-saint-louishauteville,-73.670638,45.718454
4,2,,-1,"379,900",-1.0,-1.0,-1,House,750 Rue Vaillant,Terrebonne (Terrebonne),,27525058,https://www.realtor.ca/real-estate/22580432/750-rue-vaillant-terrebonne-terrebonne-saint-louishauteville,-73.656274,45.703369
3,2,1100 sqft,-1,"379,900",-1.0,-1.0,-1,House,1635 Place de Gryon,Terrebonne (Terrebonne),,16671486,https://www.realtor.ca/real-estate/22660630/1635-place-de-gryon-terrebonne-terrebonne-saint-louishauteville,-73.671979,45.716376
3,2,,-1,"379,900",-1.0,-1.0,-1,House,3307 Rue de Gaspé,Mascouche,,28431757,https://www.realtor.ca/real-estate/22388124/3307-rue-de-gaspé-mascouche-albi,-73.5886012,45.74598187
4,2,,-1,"379,900",-1.0,-1.0,-1,House,577 Rue Pascal,Repentigny (Repentigny),,20523699,https://www.realtor.ca/real-estate/22643779/577-rue-pascal-repentigny-repentigny,-73.459768,45.751175
4,2,,-1,"380,000",-1.0,-1.0,-1,House,1525 Rue Jacques-Cartier,Sainte-Catherine,,25432088,https://www.realtor.ca/real-estate/22640557/1525-rue-jacques-cartier-sainte-catherine,-73.551965,45.388493
3,2,,-1,"380,000",-1.0,-1.0,-1,House,906 Rue Bellemare,Laval (Fabreville),,26428383,https://www.realtor.ca/real-estate/22554011/906-rue-bellemare-laval-fabreville-west,-73.847689,45.562061
4,2,,-1,"380,000",-1.0,-1.0,-1,House,6692 Rue Cadieux,Laval (Saint-François),,16527527,https://www.realtor.ca/real-estate/22568734/6692-rue-cadieux-laval-saint-françois,-73.62499153,45.6887399
5,2,,-1,"380,000",-1.0,-1.0,-1,House,5255 Av. Raoul,Longueuil (Saint-Hubert),,11291169,https://www.realtor.ca/real-estate/22644253/5255-av-raoul-longueuil-saint-hubert-central,-73.42091,45.508119
3,2,895 sqft,-1,"380,000",-1.0,-1.0,-1,House,2184 Rue de Beaurivage,Montréal (Mercier/Hochelaga-Maisonneuve),,27681455,https://www.realtor.ca/real-estate/22635858/2184-rue-de-beaurivage-montréal-mercierhochelaga-maisonneuve-mercier,-73.519544,45.592344
4,2,,-1,"382,500",-1.0,-1.0,-1,House,290 Rue des Érables,Saint-Amable,,19943116,https://www.realtor.ca/real-estate/22107560/290-rue-des-érables-saint-amable,-73.2943104,45.6456085
3,2,,-1,"384,000",-1.0,-1.0,-1,House,95 Rue Cartier,Saint-Constant,,18242246,https://www.realtor.ca/real-estate/22558472/95-rue-cartier-saint-constant,-73.546575,45.381857
3,2,,-1,"384,900",-1.0,-1.0,-1,House,2355 19e Avenue,Laval (Laval-Ouest),,18373712,https://www.realtor.ca/real-estate/22660301/2355-19e-avenue-laval-laval-ouest,-73.879016,45.547694
2,2,,-1,"385,000",-1.0,-1.0,-1,House,5 Rue du Val-des-Bois,Laval (Auteuil),,23393142,https://www.realtor.ca/real-estate/22658582/5-rue-du-val-des-bois-laval-auteuil-others,-73.761281,45.651362
4,2,,-1,"385,000",-1.0,-1.0,-1,House,193 Rue De Montgolfier,Saint-Jean-sur-Richelieu,,27028163,https://www.realtor.ca/real-estate/22663178/193-rue-de-montgolfier-saint-jean-sur-richelieu-saint-jean-sur-richelieu,-73.25936181,45.28516724
3,2,181.8 m2,-1,"385,000",-1.0,-1.0,-1,House,12170 Av. Désy,Montréal (Montréal-Nord),,28956347,https://www.realtor.ca/real-estate/22648599/12170-av-désy-montréal-montréal-nord,-73.626527,45.615892
4,2,,-1,"385,000",-1.0,-1.0,-1,House,2010 Rue Bélanger,Terrebonne (Terrebonne),,11059973,https://www.realtor.ca/real-estate/22460512/2010-rue-bélanger-terrebonne-terrebonne-saint-louishauteville,-73.6668812,45.7231497
5,2,,-1,"385,000",-1.0,-1.0,-1,House,224 Rue Sirois,Repentigny (Repentigny),,19126666,https://www.realtor.ca/real-estate/22637072/224-rue-sirois-repentigny-repentigny,-73.433306,45.772652
4,2,,-1,"385,000",-1.0,-1.0,-1,House,71-71A Rue Douglas-Anderson,Châteauguay,,9984647,https://www.realtor.ca/real-estate/22664225/71-71a-rue-douglas-anderson-châteauguay,-73.723073,45.361391
3,2,,-1,"387,000",-1.0,-1.0,-1,House,333 Rue Houle,Saint-Eustache,,12232964,https://www.realtor.ca/real-estate/22526237/333-rue-houle-saint-eustache-central-west,-73.89721871,45.56932144
4,2,1440 sqft,-1,"388,000",-1.0,-1.0,-1,House,8 Rue Beaudet,Montréal (L'Île-Bizard/Sainte-Geneviève),,28766219,https://www.realtor.ca/real-estate/21950822/8-rue-beaudet-montréal-lîle-bizardsainte-geneviève-lîle-bizard,-73.902325,45.509259
4,2,,-1,"388,000",-1.0,-1.0,-1,House,3094 Rue de l'Orchidée,Sainte-Marthe-sur-le-Lac,,12209089,https://www.realtor.ca/real-estate/22642293/3094-rue-de-lorchidée-sainte-marthe-sur-le-lac-north,-73.94749808,45.53751145
4,2,,-1,"388,500",-1.0,-1.0,-1,House,209 Mtée Lesage,Rosemère,,24702028,https://www.realtor.ca/real-estate/22644677/209-mtée-lesage-rosemère,-73.7818381,45.646367
5,2,,-1,"388,800",-1.0,-1.0,-1,House,1122 Boul. Roland-Therrien,Longueuil (Le Vieux-Longueuil),,22723829,https://www.realtor.ca/real-estate/22462851/1122-boul-roland-therrien-longueuil-le-vieux-longueuil-east,-73.485953,45.539775
3,2,,-1,"389,000",-1.0,-1.0,-1,House,3965 Rue Lewis,Longueuil (Saint-Hubert),,13118597,https://www.realtor.ca/real-estate/22525022/3965-rue-lewis-longueuil-saint-hubert-street-names-l-p,-73.433383,45.490769
3,2,,-1,"389,000",-1.0,-1.0,-1,House,449 14e Avenue,Deux-Montagnes,,16985258,https://www.realtor.ca/real-estate/22605789/449-14e-avenue-deux-montagnes-south,-73.90456809,45.54374952
2,2,,-1,"389,000",-1.0,-1.0,-1,House,100 Rue Poirier,Bois-des-Filion,,17429635,https://www.realtor.ca/real-estate/22607846/100-rue-poirier-bois-des-filion,-73.75950888,45.66841351
5,2,,-1,"389,000",-1.0,-1.0,-1,House,2 Rue De Lorne,Blainville,,12717781,https://www.realtor.ca/real-estate/22520991/2-rue-de-lorne-blainville-north,-73.86475459,45.67785393
4,2,,-1,"389,000",-1.0,-1.0,-1,House,11894 Av. Brunet,Montréal (Montréal-Nord),,12755287,https://www.realtor.ca/real-estate/22657412/11894-av-brunet-montréal-montréal-nord,-73.63287,45.60685
4,2,,-1,"389,000",-1.0,-1.0,-1,House,1618 Rue Gabrielle-Roy,Sainte-Julie,,12933203,https://www.realtor.ca/real-estate/22562890/1618-rue-gabrielle-roy-sainte-julie-de-la-belle-rivière-ringuet,-73.34908907,45.60591848
3,2,,-1,"389,000",-1.0,-1.0,-1,House,7820 Rue des Gardénias,Terrebonne (La Plaine),,18350939,https://www.realtor.ca/real-estate/22605793/7820-rue-des-gardénias-terrebonne-la-plaine-laurierchartrand,-73.737181,45.765359
5,2,,-1,"389,000",-1.0,-1.0,-1,House,225 Rue Constantin,Saint-Eustache,,22644178,https://www.realtor.ca/real-estate/22654482/225-rue-constantin-saint-eustache-central-west,-73.898853,45.562293
5,2,,-1,"389,000",-1.0,-1.0,-1,House,258 Rue Bourgeois,Saint-Amable,,9798892,https://www.realtor.ca/real-estate/22617198/258-rue-bourgeois-saint-amable,-73.303042,45.638275
5,2,,-1,"389,000",-1.0,-1.0,-1,House,256 26e Avenue,Deux-Montagnes,,24314203,https://www.realtor.ca/real-estate/22602313/256-26e-avenue-deux-montagnes-south,-73.908757,45.533773
3,2,,-1,"389,000",-1.0,-1.0,-1,House,14255Z-14275Z Rue Girard,Saint-Hyacinthe,,28357034,https://www.realtor.ca/real-estate/22659781/14255z-14275z-rue-girard-saint-hyacinthe-sainte-rosalie,-72.89472747,45.64551763
5,2,,-1,"389,000",-1.0,-1.0,-1,House,249 Ch. de Mille-Isles,Mille-Isles,,14335484,https://www.realtor.ca/real-estate/22463720/249-ch-de-mille-isles-mille-isles,-74.12973964,45.79059234
4,2,,-1,"389,000",-1.0,-1.0,-1,House,81 Rue Godfroy-Gendreau,Saint-Jean-sur-Richelieu,,24465127,https://www.realtor.ca/real-estate/22634943/81-rue-godfroy-gendreau-saint-jean-sur-richelieu-saint-luc,-73.294171,45.336646
3,2,,-1,"389,000",-1.0,-1.0,-1,House,877 Rue des Champs,Sainte-Julie,,16361585,https://www.realtor.ca/real-estate/22631395/877-rue-des-champs-sainte-julie-de-la-belle-rivière-ringuet,-73.34610224,45.59991426
3,2,,-1,"389,000",-1.0,-1.0,-1,House,11515 19e Avenue (R.-d.-P.),Montréal (Rivière-des-Prairies/Pointe-aux-Trembles),,21891641,https://www.realtor.ca/real-estate/22296810/11515-19e-avenue-r-d-p-montréal-rivière-des-prairiespointe-aux-trembles-rivière-des-prairies,-73.587528,45.626594
4,2,,-1,"389,000",-1.0,-1.0,-1,House,216 Rue de Champlain,Châteauguay,,16379176,https://www.realtor.ca/real-estate/22655258/216-rue-de-champlain-châteauguay,-73.741112,45.348835
4,2,,-1,"389,000",-1.0,-1.0,-1,House,167 Rue Courcelle,Longueuil (Le Vieux-Longueuil),,12133248,https://www.realtor.ca/real-estate/22564365/167-rue-courcelle-longueuil-le-vieux-longueuil-street-names-p-m-c,-73.4387068,45.51504914
2,2,,-1,"389,000",-1.0,-1.0,-1,House,13 Rue Tessier,Saint-Jean-sur-Richelieu,,28342295,https://www.realtor.ca/real-estate/22622867/13-rue-tessier-saint-jean-sur-richelieu-saint-athanase,-73.251851,45.348207
3,2,,-1,"389,000",-1.0,-1.0,-1,House,691 Rue Dulude,Saint-Amable,,25917621,https://www.realtor.ca/real-estate/22478672/691-rue-dulude-saint-amable,-73.30857205,45.65458302
4,2,,-1,"389,000",-1.0,-1.0,-1,House,219 Boul. du Curé-Boivin,Boisbriand,,18840517,https://www.realtor.ca/real-estate/22333571/219-boul-du-curé-boivin-boisbriand-east,-73.81891,45.620104
4,2,,-1,"389,000",-1.0,-1.0,-1,House,2505 Rue Adélaïde,Longueuil (Saint-Hubert),,24067413,https://www.realtor.ca/real-estate/22623937/2505-rue-adélaïde-longueuil-saint-hubert-central,-73.416123,45.500188
4,2,,-1,"389,000",-1.0,-1.0,-1,House,1259 Rue Girard,Longueuil (Saint-Hubert),,20639761,https://www.realtor.ca/real-estate/22660492/1259-rue-girard-longueuil-saint-hubert-laflèche,-73.456111,45.499302
3,2,1019 sqft,-1,"389,900",-1.0,-1.0,-1,House,106 Rue Mailloux,Marieville,,12966592,https://www.realtor.ca/real-estate/22664341/106-rue-mailloux-marieville,-73.20201376,45.44002217
3,2,,-1,"389,900",-1.0,-1.0,-1,House,2246 Boul. Prudentiel,Laval (Vimont),,22372144,https://www.realtor.ca/real-estate/22654476/2246-boul-prudentiel-laval-vimont-others,-73.73465208,45.61679638
3,2,,-1,"389,900",-1.0,-1.0,-1,House,950 Rue St-Pierre O.,Saint-Hyacinthe,,26315512,https://www.realtor.ca/real-estate/22655669/950-rue-st-pierre-o-saint-hyacinthe-la-providence,-72.937189,45.622076
4,2,,-1,"389,900",-1.0,-1.0,-1,House,3684 Boul. Ste-Rose,Laval (Fabreville),,20752552,https://www.realtor.ca/real-estate/22136220/3684-boul-ste-rose-laval-fabreville-east,-73.818876,45.581415
4,2,,-1,"389,900",-1.0,-1.0,-1,House,1071 Rue de Grand-Pré,Laval (Duvernay),,16881087,https://www.realtor.ca/real-estate/22624291/1071-rue-de-grand-pré-laval-duvernay-val-des-arbres,-73.675371,45.586968
4,2,,-1,"389,900",-1.0,-1.0,-1,House,3220 Crois. Foch,Laval (Fabreville),,15967638,https://www.realtor.ca/real-estate/22650420/3220-crois-foch-laval-fabreville-east,-73.804743,45.58265279
2,2,,-1,"389,900",-1.0,-1.0,-1,House,30 Rue Jolicoeur,Repentigny (Repentigny),,15944627,https://www.realtor.ca/real-estate/22650419/30-rue-jolicoeur-repentigny-repentigny,-73.442122,45.742831
4,2,,-1,"389,900",-1.0,-1.0,-1,House,3220 Crois. Foch,Laval (Fabreville),,15967638,https://www.realtor.ca/real-estate/22650420/3220-crois-foch-laval-fabreville-east,-73.804743,45.58265279
3,2,,-1,"389,900",-1.0,-1.0,-1,House,1955 Rue Labadie,Varennes,,17227878,https://www.realtor.ca/real-estate/22639492/1955-rue-labadie-varennes,-73.413591,45.683114
3,2,1204 sqft,-1,"389,900",-1.0,-1.0,-1,House,2867 Boul. Perrot,Notre-Dame-de-l'Île-Perrot,,17566500,https://www.realtor.ca/real-estate/22643534/2867-boul-perrot-notre-dame-de-lîle-perrot,-73.95760217,45.35101943
3,2,,-1,"389,900",-1.0,-1.0,-1,House,551 6e Avenue,Saint-Jean-sur-Richelieu,,11162357,https://www.realtor.ca/real-estate/22642280/551-6e-avenue-saint-jean-sur-richelieu-iberville,-73.225863,45.308985
4,2,,-1,"389,900",-1.0,-1.0,-1,House,25 Rue Brière,Saint-Jacques-le-Mineur,,10706520,https://www.realtor.ca/real-estate/22520975/25-rue-brière-saint-jacques-le-mineur,-73.41620544,45.26866633
3,2,1019 sqft,-1,"389,900",-1.0,-1.0,-1,House,106 Rue Mailloux,Marieville,,12966592,https://www.realtor.ca/real-estate/22664341/106-rue-mailloux-marieville,-73.20201376,45.44002217
4,2,,-1,"389,900",-1.0,-1.0,-1,House,8110-8112 Rue François-Baillairgé,Mirabel,,10822464,https://www.realtor.ca/real-estate/22278168/8110-8112-rue-françois-baillairgé-mirabel-saint-augustin,-74.00268073,45.62878256
4,2,,-1,"389,900",-1.0,-1.0,-1,House,3684 Boul. Ste-Rose,Laval (Fabreville),,20752552,https://www.realtor.ca/real-estate/22136220/3684-boul-ste-rose-laval-fabreville-east,-73.818876,45.581415
3,2,92.9 m2,-1,"392,500",-1.0,-1.0,-1,House,1720 Rue de Lucerne,Laval (Vimont),,21947913,https://www.realtor.ca/real-estate/22426250/1720-rue-de-lucerne-laval-vimont-others,-73.719546,45.598978
3,2,1800 sqft,-1,"393,000",-1.0,-1.0,-1,House,872 Place Sardaigne,Brossard,,23919627,https://www.realtor.ca/real-estate/22637148/872-place-sardaigne-brossard-street-names-s,-73.48753951,45.45440243
4,2,,-1,"394,000",-1.0,-1.0,-1,House,8430 Rue Charlemagne,Laval (Saint-François),,22600409,https://www.realtor.ca/real-estate/22554409/8430-rue-charlemagne-laval-saint-françois,-73.57909847,45.66929471
3,2,,-1,"394,434",-1.0,-1.0,-1,House,Boul. Lajeunesse O.,Saint-Jérôme,,24339335,https://www.realtor.ca/real-estate/22477460/boul-lajeunesse-o-saint-jérôme-bellefeuille,-74.04250175,45.78528551
4,2,,-1,"395,000",-1.0,-1.0,-1,House,716 Rue Camille,Laval (Fabreville),,28768429,https://www.realtor.ca/real-estate/22512082/716-rue-camille-laval-fabreville-east,-73.799882,45.586998
2,2,,-1,"395,000",-1.0,-1.0,-1,House,881 Av. Papineau,Laval (Saint-Vincent-de-Paul),,10190448,https://www.realtor.ca/real-estate/22266502/881-av-papineau-laval-saint-vincent-de-paul,-73.651586,45.601813
4,2,,-1,"395,000",-1.0,-1.0,-1,House,2249 Rue Latour,Longueuil (Saint-Hubert),,28668684,https://www.realtor.ca/real-estate/22647064/2249-rue-latour-longueuil-saint-hubert-central,-73.416351,45.501358
2,2,,-1,"395,000",-1.0,-1.0,-1,House,504 Rue Park,Hudson,,20935886,https://www.realtor.ca/real-estate/22646879/504-rue-park-hudson-central,-74.14568453,45.45927664
4,2,1498 sqft,-1,"395,000",-1.0,-1.0,-1,House,479 Boul. Salaberry N.,Châteauguay,,26462863,https://www.realtor.ca/real-estate/22444841/479-boul-salaberry-n-châteauguay,-73.75006349,45.39717558
4,2,,-1,"395,000",-1.0,-1.0,-1,House,550 Rue Couture,Saint-Jean-sur-Richelieu,,16573464,https://www.realtor.ca/real-estate/22646653/550-rue-couture-saint-jean-sur-richelieu-saint-jean-sur-richelieu,-73.29636241,45.31626628
3,2,,-1,"395,000",-1.0,-1.0,-1,House,48 Ch. de la Pomme-d'Or,Saint-Antoine-sur-Richelieu,,9149932,https://www.realtor.ca/real-estate/22584397/48-ch-de-la-pomme-dor-saint-antoine-sur-richelieu,-73.1684299,45.78888548
8,3,224.58 m2,-1,"396,500",-1.0,-1.0,-1,House,26 Rue Clermont,Saint-Jean-sur-Richelieu,,26375452,https://www.realtor.ca/real-estate/22068916/26-rue-clermont-saint-jean-sur-richelieu-saint-luc,-73.30485856,45.35905815
4,2,,-1,"397,000",-1.0,-1.0,-1,House,143 Rue Champlain,Salaberry-de-Valleyfield,,23931308,https://www.realtor.ca/real-estate/22080990/143-rue-champlain-salaberry-de-valleyfield-salaberry-de-valleyfield,-74.13179,45.25402
4,2,,-1,"397,000",-1.0,-1.0,-1,House,5555 37e Avenue,Laval (Laval-Ouest),,18830693,https://www.realtor.ca/real-estate/22581567/5555-37e-avenue-laval-laval-ouest,-73.868999,45.548047
6,2,,-1,"397,800",-1.0,-1.0,-1,House,103 Av. Mermoz,Candiac,,26556904,https://www.realtor.ca/real-estate/22619111/103-av-mermoz-candiac,-73.530656,45.398053
3,2,,-1,"397,900",-1.0,-1.0,-1,House,8645 Rue Georges-Vermette,Mirabel,,13937832,https://www.realtor.ca/real-estate/20828875/8645-rue-georges-vermette-mirabel-saint-augustin,-74.0313077,45.63739466
4,2,,-1,"398,000",-1.0,-1.0,-1,House,5710 Av. Grenier,Longueuil (Saint-Hubert),,15862503,https://www.realtor.ca/real-estate/22633780/5710-av-grenier-longueuil-saint-hubert-orchard,-73.428544,45.483226
4,2,,-1,"398,000",-1.0,-1.0,-1,House,7669 Place Trahan,Brossard,,16526281,https://www.realtor.ca/real-estate/22626818/7669-place-trahan-brossard-street-names-t,-73.48416231,45.45981605
4,2,,-1,"398,000",-1.0,-1.0,-1,House,12160 Av. Désy,Montréal (Montréal-Nord),,16782977,https://www.realtor.ca/real-estate/22544170/12160-av-désy-montréal-montréal-nord,-73.626324,45.615688
3,2,,-1,"398,500",-1.0,-1.0,-1,House,1859 Rue Savaria,Sainte-Julie,,11610069,https://www.realtor.ca/real-estate/22543642/1859-rue-savaria-sainte-julie-du-rucher,-73.34979046,45.59187018
3,2,,-1,"399,000",-1.0,-1.0,-1,House,162 Place Beauregard,Saint-Damase,,26372113,https://www.realtor.ca/real-estate/22548844/162-place-beauregard-saint-damase,-73.00679897,45.524241
4,2,,-1,"399,000",-1.0,-1.0,-1,House,1796 Rue des Vents,Sainte-Julie,,18965986,https://www.realtor.ca/real-estate/22578789/1796-rue-des-vents-sainte-julie-du-rucher,-73.35137,45.59358
6,2,,-1,"399,000",-1.0,-1.0,-1,House,4660 52e Rue,Laval (Laval-Ouest),,20680179,https://www.realtor.ca/real-estate/22571867/4660-52e-rue-laval-laval-ouest,-73.866499,45.551073
5,2,,-1,"399,000",-1.0,-1.0,-1,House,19 5e Avenue N.,Montréal (Pierrefonds-Roxboro),,26471054,https://www.realtor.ca/real-estate/22597480/19-5e-avenue-n-montréal-pierrefonds-roxboro-roxboro,-73.817295,45.512003
5,2,,-1,"399,000",-1.0,-1.0,-1,House,3218 Rue Mousseau,Longueuil (Le Vieux-Longueuil),,27087962,https://www.realtor.ca/real-estate/22589723/3218-rue-mousseau-longueuil-le-vieux-longueuil-street-names-p-m-c,-73.449551,45.523727
4,2,,-1,"399,000",-1.0,-1.0,-1,House,510 Rue Valois,Laval (Chomedey),,20919942,https://www.realtor.ca/real-estate/22588097/510-rue-valois-laval-chomedey-place-renaud,-73.719923,45.583981
9,2,,-1,"399,000",-1.0,-1.0,-1,House,2820 Rue St-Pierre O.,Saint-Hyacinthe,,24697572,https://www.realtor.ca/real-estate/22589236/2820-rue-st-pierre-o-saint-hyacinthe-la-providence,-72.95547305,45.61671201
4,2,,-1,"399,000",-1.0,-1.0,-1,House,2641 Rue de l'Azalée,Terrebonne (La Plaine),,22407529,https://www.realtor.ca/real-estate/22630911/2641-rue-de-lazalée-terrebonne-la-plaine-laurierchartrand,-73.693082,45.764565
4,2,,-1,"399,000",-1.0,-1.0,-1,House,1439 Rue Côte-d'Ivoire,Mascouche,,15381343,https://www.realtor.ca/real-estate/22636267/1439-rue-côte-divoire-mascouche-mascouche-heights,-73.66752429,45.72911055
3,2,,-1,"399,000",-1.0,-1.0,-1,House,255 Rue Coursol,Saint-Amable,,24970692,https://www.realtor.ca/real-estate/22635845/255-rue-coursol-saint-amable,-73.30351357,45.64123054
3,2,,-1,"399,000",-1.0,-1.0,-1,House,3289 Boul. Dagenais O.,Laval (Fabreville),,20659258,https://www.realtor.ca/real-estate/22635830/3289-boul-dagenais-o-laval-fabreville-east,-73.802979,45.579869
5,2,,-1,"399,000",-1.0,-1.0,-1,House,10289 Rue des Églantiers,Montréal (Rivière-des-Prairies/Pointe-aux-Trembles),,20187062,https://www.realtor.ca/real-estate/22604424/10289-rue-des-églantiers-montréal-rivière-des-prairiespointe-aux-trembles-rivière-des-prairies,-73.553437,45.661763
3,2,,-1,"399,000",-1.0,-1.0,-1,House,37 Rue Guèvremont,Varennes,,21809515,https://www.realtor.ca/real-estate/22642337/37-rue-guèvremont-varennes,-73.436524,45.687151
3,2,,-1,"399,000",-1.0,-1.0,-1,House,604 Rue du Châtelet,Longueuil (Le Vieux-Longueuil),,21338234,https://www.realtor.ca/real-estate/22640464/604-rue-du-châtelet-longueuil-le-vieux-longueuil-street-names-p-m-c,-73.44203134,45.52442507
4,2,,-1,"399,000",-1.0,-1.0,-1,House,446 Rue Jean-Baptiste-Campeau,Saint-Eustache,,16513665,https://www.realtor.ca/real-estate/22643728/446-rue-jean-baptiste-campeau-saint-eustache-north-west,-73.933978,45.573135
5,2,,-1,"399,000",-1.0,-1.0,-1,House,13610 Rue du Taillandier,Mirabel,,13847344,https://www.realtor.ca/real-estate/22648752/13610-rue-du-taillandier-mirabel-saint-canut,-74.101791,45.697191
4,2,,-1,"399,000",-1.0,-1.0,-1,House,8641 23e Avenue,Montréal (Villeray/Saint-Michel/Parc-Extension),,14137360,https://www.realtor.ca/real-estate/22648801/8641-23e-avenue-montréal-villeraysaint-michelparc-extension-saint-michel,-73.611774,45.576545
3,2,,-1,"399,000",-1.0,-1.0,-1,House,8310 23e Avenue,Montréal (Villeray/Saint-Michel/Parc-Extension),,18383880,https://www.realtor.ca/real-estate/22651792/8310-23e-avenue-montréal-villeraysaint-michelparc-extension-saint-michel,-73.60603,45.573634
3,2,,-1,"399,000",-1.0,-1.0,-1,House,100 Rue Martin,Longueuil (Le Vieux-Longueuil),,18737524,https://www.realtor.ca/real-estate/22661147/100-rue-martin-longueuil-le-vieux-longueuil-fatima,-73.47717154,45.57476806
5,2,,-1,"399,000",-1.0,-1.0,-1,House,2225 Boul. Ste-Rose,Laval (Laval-Ouest),,23001673,https://www.realtor.ca/real-estate/22662637/2225-boul-ste-rose-laval-laval-ouest,-73.87416497,45.54457578
3,2,,-1,"399,000",-1.0,-1.0,-1,House,1653 Rue des Jésuites,Chambly,,25514513,https://www.realtor.ca/real-estate/22626857/1653-rue-des-jésuites-chambly,-73.3059453,45.43748245
3,2,,-1,"399,000",-1.0,-1.0,-1,House,2987 Rue Louise-de Ramezay,Chambly,,21829208,https://www.realtor.ca/real-estate/22629196/2987-rue-louise-de-ramezay-chambly,-73.30915904,45.42591568
5,2,,-1,"399,000",-1.0,-1.0,-1,House,285 Rue de Cartier,Sainte-Catherine,,12842343,https://www.realtor.ca/real-estate/22645468/285-rue-de-cartier-sainte-catherine,-73.56577744,45.40227322
8,4,1781 sqft,-1,"399,000",-1.0,-1.0,-1,House,7738-7740 Rue George,Montréal (LaSalle),,22310496,https://www.realtor.ca/real-estate/22468179/7738-7740-rue-george-montréal-lasalle,-73.604997,45.429721
4,2,,-1,"399,000",-1.0,-1.0,-1,House,3368 Rue Lareau,Carignan,,11355444,https://www.realtor.ca/real-estate/22552277/3368-rue-lareau-carignan,-73.35656032,45.45167558
3,2,71.3 m2,-1,"399,000",-1.0,-1.0,-1,House,2481 Ch. Ste-Angélique,Saint-Lazare,,19328823,https://www.realtor.ca/real-estate/22664072/2481-ch-ste-angélique-saint-lazare-cedarbrook,-74.16236835,45.40141941
5,2,,-1,"399,000",-1.0,-1.0,-1,House,23 Rue Jean-Yves,Montréal (L'Île-Bizard/Sainte-Geneviève),,16254581,https://www.realtor.ca/real-estate/22021132/23-rue-jean-yves-montréal-lîle-bizardsainte-geneviève-lîle-bizard,-73.88070202,45.48313265
4,2,1331.5 sqft,-1,"399,000",-1.0,-1.0,-1,House,55 Rue Nash,Dollard-Des Ormeaux,,28869263,https://www.realtor.ca/real-estate/21668080/55-rue-nash-dollard-des-ormeaux-east,-73.792496,45.502729
5,2,,-1,"399,000",-1.0,-1.0,-1,House,88 4e Avenue S.,Montréal (Pierrefonds-Roxboro),,13153649,https://www.realtor.ca/real-estate/22395256/88-4e-avenue-s-montréal-pierrefonds-roxboro-roxboro,-73.80182153,45.50800376
4,2,,-1,"399,000",-1.0,-1.0,-1,House,37 Rue des Lilas,Mercier,,10886772,https://www.realtor.ca/real-estate/22648338/37-rue-des-lilas-mercier,-73.74211885,45.30223901
5,2,,-1,"399,000",-1.0,-1.0,-1,House,260 Rue Elm,Châteauguay,,9417992,https://www.realtor.ca/real-estate/22420244/260-rue-elm-châteauguay,-73.728892,45.374888
4,2,,-1,"399,000",-1.0,-1.0,-1,House,115 Rue Lorraine,Saint-Jean-sur-Richelieu,,25593563,https://www.realtor.ca/real-estate/22593504/115-rue-lorraine-saint-jean-sur-richelieu-lacadie,-73.39043259,45.37324766
3,2,2375 sqft,-1,"399,000",-1.0,-1.0,-1,House,91 Rue Jonathan,Châteauguay,,22176284,https://www.realtor.ca/real-estate/22476276/91-rue-jonathan-châteauguay,-73.739459,45.370448
5,2,,-1,"399,000",-1.0,-1.0,-1,House,25 Rue Proulx,Saint-Constant,,17442372,https://www.realtor.ca/real-estate/22583578/25-rue-proulx-saint-constant,-73.579556,45.389378
3,2,,-1,"399,000",-1.0,-1.0,-1,House,2633 Av. Brunet,Vaudreuil-Dorion,,15006798,https://www.realtor.ca/real-estate/22646004/2633-av-brunet-vaudreuil-dorion-vaudreuil-east,-74.03112815,45.39085483
4,2,,-1,"399,000",-1.0,-1.0,-1,House,3865 Rue Quevillon,Longueuil (Saint-Hubert),,20394647,https://www.realtor.ca/real-estate/22639516/3865-rue-quevillon-longueuil-saint-hubert-parc-de-la-cité,-73.404697,45.476603
4,2,,-1,"399,000",-1.0,-1.0,-1,House,6120 Rue Alphonse,Brossard,,20251771,https://www.realtor.ca/real-estate/22636298/6120-rue-alphonse-brossard-street-names-a,-73.462539,45.479305
3,2,,-1,"399,000",-1.0,-1.0,-1,House,603 Rue des Récollets,Longueuil (Le Vieux-Longueuil),,21619369,https://www.realtor.ca/real-estate/22648352/603-rue-des-récollets-longueuil-le-vieux-longueuil-nobert-south,-73.45640468,45.51094911
6,2,4680 sqft,-1,"399,000",-1.0,-1.0,-1,House,3808 41e Avenue (P.-a.-T.),Montréal (Rivière-des-Prairies/Pointe-aux-Trembles),,20331743,https://www.realtor.ca/real-estate/21598587/3808-41e-avenue-p-a-t-montréal-rivière-des-prairiespointe-aux-trembles-pointe-aux-trembles,-73.515091,45.665378
5,2,,-1,"399,000",-1.0,-1.0,-1,House,124 Rue De Mésy,Boucherville,,28574284,https://www.realtor.ca/real-estate/22430082/124-rue-de-mésy-boucherville-east,-73.443381,45.628213
3,2,,-1,"399,000",-1.0,-1.0,-1,House,3 38e Avenue,Sainte-Marthe-sur-le-Lac,,19450618,https://www.realtor.ca/real-estate/22426242/3-38e-avenue-sainte-marthe-sur-le-lac-south,-73.94368134,45.51955745
4,3,,-1,"399,000",-1.0,-1.0,-1,House,258 Rue Downing,Saint-Colomban,,19422286,https://www.realtor.ca/real-estate/22502313/258-rue-downing-saint-colomban,-74.12891533,45.72646383
9,2,,-1,"399,000",-1.0,-1.0,-1,House,7531 3e Avenue,Laval (Laval-Ouest),,17861331,https://www.realtor.ca/real-estate/22527914/7531-3e-avenue-laval-laval-ouest,-73.87663516,45.53608146
4,2,89.57 m2,-1,"399,001",-1.0,-1.0,-1,House,1163 Rue Richard,Blainville,,17558627,https://www.realtor.ca/real-estate/22587313/1163-rue-richard-blainville-north,-73.895515,45.67698
4,2,,-1,"399,500",-1.0,-1.0,-1,House,16490 Av. Marguerite-D'Youville,Saint-Hyacinthe,,11047648,https://www.realtor.ca/real-estate/22495325/16490-av-marguerite-dyouville-saint-hyacinthe-saint-joseph,-72.93765419,45.61920192
3,2,1200 sqft,-1,"399,500",-1.0,-1.0,-1,House,25 42e Avenue,Saint-Eustache,,13070654,https://www.realtor.ca/real-estate/21926781/25-42e-avenue-saint-eustache-east,-73.85845651,45.5752126
4,2,,-1,"399,700",-1.0,-1.0,-1,House,742 Rue Boullé,Beloeil,,21774496,https://www.realtor.ca/real-estate/22589221/742-rue-boullé-beloeil,-73.21389949,45.57089208
4,2,,-1,"399,900",-1.0,-1.0,-1,House,267 Rue Jasmine,Laval (Fabreville),,15728873,https://www.realtor.ca/real-estate/22590606/267-rue-jasmine-laval-fabreville-east,-73.807111,45.560715
3,3,,-1,"399,900",-1.0,-1.0,-1,House,2335 Mtée Gagnon,Terrebonne (Terrebonne),,11370658,https://www.realtor.ca/real-estate/22583250/2335-mtée-gagnon-terrebonne-terrebonne-west,-73.726583,45.764125
3,3,,-1,"399,900",-1.0,-1.0,-1,House,2053 Rue Comtois,Mascouche,,20313400,https://www.realtor.ca/real-estate/22583596/2053-rue-comtois-mascouche-mascouche-heights,-73.6416493,45.78088305
4,2,120.2 m2,-1,"399,900",-1.0,-1.0,-1,House,980 17e Avenue,Laval (Fabreville),,20775905,https://www.realtor.ca/real-estate/22557017/980-17e-avenue-laval-fabreville-west,-73.854932,45.561023
4,2,,-1,"399,900",-1.0,-1.0,-1,House,2419 Boul. René-Gaultier,Varennes,,13464801,https://www.realtor.ca/real-estate/22541049/2419-boul-rené-gaultier-varennes,-73.43079006,45.68602774
3,2,,-1,"399,900",-1.0,-1.0,-1,House,10746 Av. de Paris,Montréal (Montréal-Nord),,13899184,https://www.realtor.ca/real-estate/22540000/10746-av-de-paris-montréal-montréal-nord,-73.639683,45.587723
3,2,,-1,"399,900",-1.0,-1.0,-1,House,4 28e Avenue,Bois-des-Filion,,11082446,https://www.realtor.ca/real-estate/22619024/4-28e-avenue-bois-des-filion,-73.75055199,45.6688391
3,2,,-1,"399,900",-1.0,-1.0,-1,House,300 Rue St-Saens O.,Laval (Auteuil),,24928473,https://www.realtor.ca/real-estate/22619982/300-rue-st-saens-o-laval-auteuil-others,-73.759297,45.63339
4,2,,-1,"399,900",-1.0,-1.0,-1,House,2046 Rue Maurice-Duplessis,Sainte-Julie,,19881265,https://www.realtor.ca/real-estate/22621260/2046-rue-maurice-duplessis-sainte-julie-du-rucher,-73.35042564,45.58859654
4,2,68.2 m2,-1,"399,900",-1.0,-1.0,-1,House,845 13e Avenue,Montréal (Rivière-des-Prairies/Pointe-aux-Trembles),,27044601,https://www.realtor.ca/real-estate/22621305/845-13e-avenue-montréal-rivière-des-prairiespointe-aux-trembles-pointe-aux-trembles,-73.495069,45.642319
4,2,,-1,"399,900",-1.0,-1.0,-1,House,978 Rue Desmarchais,Laval (Fabreville),,15359403,https://www.realtor.ca/real-estate/22622831/978-rue-desmarchais-laval-fabreville-west,-73.848707,45.564726
3,2,,-1,"399,900",-1.0,-1.0,-1,House,1883 Rue Verreault,Laval (Chomedey),,20390998,https://www.realtor.ca/real-estate/22634917/1883-rue-verreault-laval-chomedey-place-renaud,-73.70908166,45.58410898
3,2,,-1,"399,900",-1.0,-1.0,-1,House,13334 Rue Léveillé,Mirabel,,26375341,https://www.realtor.ca/real-estate/22663372/13334-rue-léveillé-mirabel-saint-janvier,-73.93790366,45.69878545
3,2,,-1,"399,900",-1.0,-1.0,-1,House,3104 Rue Lambert,Sainte-Marthe-sur-le-Lac,,12225096,https://www.realtor.ca/real-estate/22660464/3104-rue-lambert-sainte-marthe-sur-le-lac-south,-73.93376335,45.5202029
4,2,,-1,"399,900",-1.0,-1.0,-1,House,316 26e Avenue,Deux-Montagnes,,16576258,https://www.realtor.ca/real-estate/22664478/316-26e-avenue-deux-montagnes-north,-73.911813,45.535992
4,2,,-1,"399,900",-1.0,-1.0,-1,House,12334 Rue Ste-Catherine E.,Montréal (Rivière-des-Prairies/Pointe-aux-Trembles),,13094977,https://www.realtor.ca/real-estate/22656771/12334-rue-ste-catherine-e-montréal-rivière-des-prairiespointe-aux-trembles-pointe-aux-trembles,-73.502899,45.645956
3,2,,-1,"399,900",-1.0,-1.0,-1,House,850 Rue Honoré-Desrochers,Boucherville,,17811456,https://www.realtor.ca/real-estate/22643536/850-rue-honoré-desrochers-boucherville-east,-73.45061,45.62681
4,2,,-1,"399,900",-1.0,-1.0,-1,House,12664 Place Simon-Després,Montréal (Rivière-des-Prairies/Pointe-aux-Trembles),,15571759,https://www.realtor.ca/real-estate/22640448/12664-place-simon-després-montréal-rivière-des-prairiespointe-aux-trembles-rivière-des-prairies,-73.581574,45.651017
4,2,,-1,"399,900",-1.0,-1.0,-1,House,116 Rue Royal Park,Deux-Montagnes,,16753874,https://www.realtor.ca/real-estate/22640119/116-rue-royal-park-deux-montagnes-south,-73.88850747,45.54081452
4,2,,-1,"399,900",-1.0,-1.0,-1,House,4010 Place Courteau,Laval (Chomedey),,10254746,https://www.realtor.ca/real-estate/22640290/4010-place-courteau-laval-chomedey-carrefour-saint-martin,-73.774357,45.557808
8,2,,-1,"399,900",-1.0,-1.0,-1,House,270-272 16e Avenue,Deux-Montagnes,,15749685,https://www.realtor.ca/real-estate/21947538/270-272-16e-avenue-deux-montagnes-south,-73.90266058,45.53971874
4,2,1740 sqft,-1,"399,900",-1.0,-1.0,-1,House,1527 Rue Jean-Bariteau,Longueuil (Le Vieux-Longueuil),,21414698,https://www.realtor.ca/real-estate/22575906/1527-rue-jean-bariteau-longueuil-le-vieux-longueuil-lemoyne,-73.498195,45.511017
4,2,,-1,"399,900",-1.0,-1.0,-1,House,8070 Boul. Laframboise,Saint-Hyacinthe,,13381515,https://www.realtor.ca/real-estate/22495976/8070-boul-laframboise-saint-hyacinthe-saint-thomas-daquin,-72.963268,45.634474
5,2,1256 sqft,-1,"399,900",-1.0,-1.0,-1,House,2638 Ch. St-Philippe,Mascouche,,16236749,https://www.realtor.ca/real-estate/22506937/2638-ch-st-philippe-mascouche-city,-73.60470837,45.79487234
4,2,,-1,"399,900",-1.0,-1.0,-1,House,979 Av. Champagnat,Laval (Saint-Vincent-de-Paul),,18029997,https://www.realtor.ca/real-estate/22471259/979-av-champagnat-laval-saint-vincent-de-paul,-73.647581,45.608917
